{"Lincolnia":{"results":[{"address_components":[{"long_name":"Lincolnia Road","short_name":"Lincolnia Rd","types":["route"]},{"long_name":"Alexandria","short_name":"Alexandria","types":["locality","political"]},{"long_name":"Virginia","short_name":"VA","types":["administrative_area_level_1","political"]},{"long_name":"United States","short_name":"US","types":["country","political"]},{"long_name":"22312","short_name":"22312","types":["postal_code"]}],"formatted_address":"Lincolnia Rd, Alexandria, VA 22312, USA","geometry":{"bounds":{"northeast":{"lat":38.8364198,"lng":-77.1313716},"southwest":{"lat":38.8174519,"lng":-77.15792139999999}},"location":{"lat":38.8193847,"lng":-77.13930599999999},"location_type":"GEOMETRIC_CENTER","viewport":{"northeast":{"lat":38.8364198,"lng":-77.1313716},"southwest":{"lat":38.8174519,"lng":-77.15792139999999}}},"partial_match":true,"place_id":"ChIJj2K_yKezt4kR7HMF5ovZrLc","types":["route"]}],"status":"OK"},"Seminary":{"results":[{"address_components":[{"long_name":"Seminary Road","short_name":"Seminary Rd","types":["route"]},{"long_name":"Alexandria","short_name":"Alexandria","types":["locality","political"]},{"long_name":"Virginia","short_name":"VA","types":["administrative_area_level_1","political"]},{"long_name":"United States","short_name":"US","types":["country","political"]}],"formatted_address":"Seminary Rd, Alexandria, VA, USA","geometry":{"bounds":{"northeast":{"lat":38.8452835,"lng":-77.089551},"southwest":{"lat":38.817141,"lng":-77.12367259999999}},"location":{"lat":38.828625,"lng":-77.107376},"location_type":"GEOMETRIC_CENTER","viewport":{"northeast":{"lat":38.8452835,"lng":-77.089551},"southwest":{"lat":38.817141,"lng":-77.12367259999999}}},"partial_match":true,"place_id":"ChIJC4qAOOezt4kRSgQfLE9jYP8","types":["route"]}],"status":"OK"},"816 Queen":{"results":[{"address_components":[{"long_name":"816","short_name":"816","types":["street_number"]},{"long_name":"Queen Street","short_name":"Queen St","types":["route"]},{"long_name":"Old Town West","short_name":"Old Town West","types":["neighborhood","political"]},{"long_name":"Alexandria","short_name":"Alexandria","types":["locality","political"]},{"long_name":"Virginia","short_name":"VA","types":["administrative_area_level_1","political"]},{"long_name":"United States","short_name":"US","types":["country","political"]},{"long_name":"22314","short_name":"22314","types":["postal_code"]},{"long_name":"2417","short_name":"2417","types":["postal_code_suffix"]}],"formatted_address":"816 Queen St, Alexandria, VA 22314, USA","geometry":{"bounds":{"northeast":{"lat":38.8074653,"lng":-77.0482918},"southwest":{"lat":38.807309,"lng":-77.04840910000001}},"location":{"lat":38.8073872,"lng":-77.0483505},"location_type":"ROOFTOP","viewport":{"northeast":{"lat":38.8087361302915,"lng":-77.0470014697085},"southwest":{"lat":38.8060381697085,"lng":-77.04969943029151}}},"partial_match":true,"place_id":"ChIJkbiF_fiwt4kRUP_hJ9JMp0I","types":["premise"]}],"status":"OK"},"315 First St":{"results":[{"address_components":[{"long_name":"315","short_name":"315","types":["street_number"]},{"long_name":"First Street","short_name":"First St","types":["route"]},{"long_name":"Old Town North","short_name":"Old Town North","types":["neighborhood","political"]},{"long_name":"Alexandria","short_name":"Alexandria","types":["locality","political"]},{"long_name":"Virginia","short_name":"VA","types":["administrative_area_level_1","political"]},{"long_name":"United States","short_name":"US","types":["country","political"]},{"long_name":"22314","short_name":"22314","types":["postal_code"]},{"long_name":"1507","short_name":"1507","types":["postal_code_suffix"]}],"formatted_address":"315 First St, Alexandria, VA 22314, USA","geometry":{"bounds":{"northeast":{"lat":38.814767,"lng":-77.0406028},"southwest":{"lat":38.8147525,"lng":-77.0406059}},"location":{"lat":38.814767,"lng":-77.0406028},"location_type":"RANGE_INTERPOLATED","viewport":{"northeast":{"lat":38.8161087302915,"lng":-77.0392553697085},"southwest":{"lat":38.8134107697085,"lng":-77.0419533302915}}},"place_id":"EiczMTUgRmlyc3QgU3QsIEFsZXhhbmRyaWEsIFZBIDIyMzE0LCBVU0E","types":["street_address"]}],"status":"OK"},"616 S Washington":{"results":[{"address_components":[{"long_name":"616","short_name":"616","types":["street_number"]},{"long_name":"South Washington Street","short_name":"S Washington St","types":["route"]},{"long_name":"Southwest Quadrant","short_name":"Southwest Quadrant","types":["neighborhood","political"]},{"long_name":"Alexandria","short_name":"Alexandria","types":["locality","political"]},{"long_name":"Virginia","short_name":"VA","types":["administrative_area_level_1","political"]},{"long_name":"United States","short_name":"US","types":["country","political"]},{"long_name":"22314","short_name":"22314","types":["postal_code"]},{"long_name":"4110","short_name":"4110","types":["postal_code_suffix"]}],"formatted_address":"616 S Washington St, Alexandria, VA 22314, USA","geometry":{"location":{"lat":38.7986657,"lng":-77.0480923},"location_type":"ROOFTOP","viewport":{"northeast":{"lat":38.8000146802915,"lng":-77.0467433197085},"southwest":{"lat":38.7973167197085,"lng":-77.0494412802915}}},"partial_match":true,"place_id":"ChIJO4vnIFGwt4kR5gT5L20NZR4","types":["street_address"]}],"status":"OK"},"400 Pendleton":{"results":[{"address_components":[{"long_name":"400","short_name":"400","types":["street_number"]},{"long_name":"Pendleton Street","short_name":"Pendleton St","types":["route"]},{"long_name":"Old Town","short_name":"Old Town","types":["neighborhood","political"]},{"long_name":"Alexandria","short_name":"Alexandria","types":["locality","political"]},{"long_name":"Virginia","short_name":"VA","types":["administrative_area_level_1","political"]},{"long_name":"United States","short_name":"US","types":["country","political"]},{"long_name":"22314","short_name":"22314","types":["postal_code"]},{"long_name":"1902","short_name":"1902","types":["postal_code_suffix"]}],"formatted_address":"400 Pendleton St, Alexandria, VA 22314, USA","geometry":{"bounds":{"northeast":{"lat":38.8102614,"lng":-77.0425855},"southwest":{"lat":38.8101454,"lng":-77.0426809}},"location":{"lat":38.8102034,"lng":-77.0426332},"location_type":"ROOFTOP","viewport":{"northeast":{"lat":38.8115523802915,"lng":-77.04128421970849},"southwest":{"lat":38.8088544197085,"lng":-77.0439821802915}}},"partial_match":true,"place_id":"ChIJRb0Q2_Cwt4kRtjEdJ4xwXgA","types":["premise"]}],"status":"OK"},"410 N Fayette":{"results":[{"address_components":[{"long_name":"410","short_name":"410","types":["street_number"]},{"long_name":"North Fayette Street","short_name":"N Fayette St","types":["route"]},{"long_name":"Old Town West","short_name":"Old Town West","types":["neighborhood","political"]},{"long_name":"Alexandria","short_name":"Alexandria","types":["locality","political"]},{"long_name":"Virginia","short_name":"VA","types":["administrative_area_level_1","political"]},{"long_name":"United States","short_name":"US","types":["country","political"]},{"long_name":"22314","short_name":"22314","types":["postal_code"]},{"long_name":"2229","short_name":"2229","types":["postal_code_suffix"]}],"formatted_address":"410 N Fayette St, Alexandria, VA 22314, USA","geometry":{"location":{"lat":38.809583,"lng":-77.051952},"location_type":"ROOFTOP","viewport":{"northeast":{"lat":38.81093198029149,"lng":-77.05060301970849},"southwest":{"lat":38.80823401970849,"lng":-77.05330098029151}}},"partial_match":true,"place_id":"ChIJ5UWrvf6wt4kRkbbNR8rVmQ8","types":["street_address"]}],"status":"OK"},"1004 Pendleton":{"results":[{"address_components":[{"long_name":"1004","short_name":"1004","types":["street_number"]},{"long_name":"Pendleton Street","short_name":"Pendleton St","types":["route"]},{"long_name":"Old Town West","short_name":"Old Town West","types":["neighborhood","political"]},{"long_name":"Alexandria","short_name":"Alexandria","types":["locality","political"]},{"long_name":"Virginia","short_name":"VA","types":["administrative_area_level_1","political"]},{"long_name":"United States","short_name":"US","types":["country","political"]},{"long_name":"22314","short_name":"22314","types":["postal_code"]},{"long_name":"1837","short_name":"1837","types":["postal_code_suffix"]}],"formatted_address":"1004 Pendleton St, Alexandria, VA 22314, USA","geometry":{"location":{"lat":38.810956,"lng":-77.04942199999999},"location_type":"ROOFTOP","viewport":{"northeast":{"lat":38.8123049802915,"lng":-77.0480730197085},"southwest":{"lat":38.8096070197085,"lng":-77.0507709802915}}},"partial_match":true,"place_id":"ChIJL0Wo6fuwt4kRSKTyiUd3lZ4","types":["street_address"]}],"status":"OK"},"602 S Washington":{"results":[{"address_components":[{"long_name":"602","short_name":"602","types":["street_number"]},{"long_name":"South Washington Street","short_name":"S Washington St","types":["route"]},{"long_name":"Southwest Quadrant","short_name":"Southwest Quadrant","types":["neighborhood","political"]},{"long_name":"Alexandria","short_name":"Alexandria","types":["locality","political"]},{"long_name":"Virginia","short_name":"VA","types":["administrative_area_level_1","political"]},{"long_name":"United States","short_name":"US","types":["country","political"]},{"long_name":"22314","short_name":"22314","types":["postal_code"]},{"long_name":"4110","short_name":"4110","types":["postal_code_suffix"]}],"formatted_address":"602 S Washington St, Alexandria, VA 22314, USA","geometry":{"bounds":{"northeast":{"lat":38.799189,"lng":-77.04819979999999},"southwest":{"lat":38.7991866,"lng":-77.0482183}},"location":{"lat":38.7991866,"lng":-77.04819979999999},"location_type":"RANGE_INTERPOLATED","viewport":{"northeast":{"lat":38.80053678029149,"lng":-77.04686006970849},"southwest":{"lat":38.7978388197085,"lng":-77.0495580302915}}},"partial_match":true,"place_id":"Ei42MDIgUyBXYXNoaW5ndG9uIFN0LCBBbGV4YW5kcmlhLCBWQSAyMjMxNCwgVVNB","types":["street_address"]}],"status":"OK"},"211 S Columbus":{"results":[{"address_components":[{"long_name":"211","short_name":"211","types":["street_number"]},{"long_name":"South Columbus Street","short_name":"S Columbus St","types":["route"]},{"long_name":"Old Town","short_name":"Old Town","types":["neighborhood","political"]},{"long_name":"Alexandria","short_name":"Alexandria","types":["locality","political"]},{"long_name":"Virginia","short_name":"VA","types":["administrative_area_level_1","political"]},{"long_name":"United States","short_name":"US","types":["country","political"]},{"long_name":"22314","short_name":"22314","types":["postal_code"]},{"long_name":"3601","short_name":"3601","types":["postal_code_suffix"]}],"formatted_address":"211 S Columbus St, Alexandria, VA 22314, USA","geometry":{"location":{"lat":38.803515,"lng":-77.048684},"location_type":"ROOFTOP","viewport":{"northeast":{"lat":38.80486398029149,"lng":-77.04733501970848},"southwest":{"lat":38.8021660197085,"lng":-77.05003298029149}}},"partial_match":true,"place_id":"ChIJX8ujR1awt4kRUWj94FzAQss","types":["street_address"]}],"status":"OK"},"319 N Alfred":{"results":[{"address_components":[{"long_name":"319","short_name":"319","types":["street_number"]},{"long_name":"North Alfred Street","short_name":"N Alfred St","types":["route"]},{"long_name":"Old Town West","short_name":"Old Town West","types":["neighborhood","political"]},{"long_name":"Alexandria","short_name":"Alexandria","types":["locality","political"]},{"long_name":"Virginia","short_name":"VA","types":["administrative_area_level_1","political"]},{"long_name":"United States","short_name":"US","types":["country","political"]},{"long_name":"22314","short_name":"22314","types":["postal_code"]},{"long_name":"2422","short_name":"2422","types":["postal_code_suffix"]}],"formatted_address":"319 N Alfred St, Alexandria, VA 22314, USA","geometry":{"location":{"lat":38.80829300000001,"lng":-77.048228},"location_type":"ROOFTOP","viewport":{"northeast":{"lat":38.80964198029151,"lng":-77.04687901970848},"southwest":{"lat":38.80694401970851,"lng":-77.0495769802915}}},"partial_match":true,"place_id":"ChIJNXTHDvmwt4kRuJ1RD_IgHDk","types":["street_address"]}],"status":"OK"},"1019 Queen":{"results":[{"address_components":[{"long_name":"1019","short_name":"1019","types":["street_number"]},{"long_name":"Queen Street","short_name":"Queen St","types":["route"]},{"long_name":"Old Town West","short_name":"Old Town West","types":["neighborhood","political"]},{"long_name":"Alexandria","short_name":"Alexandria","types":["locality","political"]},{"long_name":"Virginia","short_name":"VA","types":["administrative_area_level_1","political"]},{"long_name":"United States","short_name":"US","types":["country","political"]},{"long_name":"22314","short_name":"22314","types":["postal_code"]},{"long_name":"2448","short_name":"2448","types":["postal_code_suffix"]}],"formatted_address":"1019 Queen St, Alexandria, VA 22314, USA","geometry":{"location":{"lat":38.808087,"lng":-77.05051000000002},"location_type":"ROOFTOP","viewport":{"northeast":{"lat":38.8094359802915,"lng":-77.04916101970852},"southwest":{"lat":38.8067380197085,"lng":-77.05185898029153}}},"partial_match":true,"place_id":"ChIJk_X1LPmwt4kR6QrrjDJEMOo","types":["street_address"]}],"status":"OK"},"605 Franklin":{"results":[{"address_components":[{"long_name":"605","short_name":"605","types":["street_number"]},{"long_name":"Franklin Street","short_name":"Franklin St","types":["route"]},{"long_name":"Old Town","short_name":"Old Town","types":["neighborhood","political"]},{"long_name":"Alexandria","short_name":"Alexandria","types":["locality","political"]},{"long_name":"Virginia","short_name":"VA","types":["administrative_area_level_1","political"]},{"long_name":"United States","short_name":"US","types":["country","political"]},{"long_name":"22314","short_name":"22314","types":["postal_code"]},{"long_name":"4126","short_name":"4126","types":["postal_code_suffix"]}],"formatted_address":"605 Franklin St, Alexandria, VA 22314, USA","geometry":{"location":{"lat":38.798281,"lng":-77.047698},"location_type":"ROOFTOP","viewport":{"northeast":{"lat":38.79962998029149,"lng":-77.04634901970849},"southwest":{"lat":38.79693201970849,"lng":-77.04904698029151}}},"partial_match":true,"place_id":"ChIJgX5p4FCwt4kRcGxgsEk7i5g","types":["street_address"]}],"status":"OK"},"618 Franklin":{"results":[{"address_components":[{"long_name":"618","short_name":"618","types":["street_number"]},{"long_name":"Franklin Street","short_name":"Franklin St","types":["route"]},{"long_name":"Alexandria","short_name":"Alexandria","types":["locality","political"]},{"long_name":"Virginia","short_name":"VA","types":["administrative_area_level_1","political"]},{"long_name":"United States","short_name":"US","types":["country","political"]},{"long_name":"22314","short_name":"22314","types":["postal_code"]},{"long_name":"4127","short_name":"4127","types":["postal_code_suffix"]}],"formatted_address":"618 Franklin St, Alexandria, VA 22314, USA","geometry":{"bounds":{"northeast":{"lat":38.7981507,"lng":-77.0481411},"southwest":{"lat":38.79813619999999,"lng":-77.0481441}},"location":{"lat":38.79813619999999,"lng":-77.0481441},"location_type":"RANGE_INTERPOLATED","viewport":{"northeast":{"lat":38.7994924302915,"lng":-77.0467936197085},"southwest":{"lat":38.7967944697085,"lng":-77.0494915802915}}},"partial_match":true,"place_id":"Eio2MTggRnJhbmtsaW4gU3QsIEFsZXhhbmRyaWEsIFZBIDIyMzE0LCBVU0E","types":["street_address"]}],"status":"OK"},"311 N Patrick":{"results":[{"address_components":[{"long_name":"311","short_name":"311","types":["street_number"]},{"long_name":"North Patrick Street","short_name":"N Patrick St","types":["route"]},{"long_name":"Old Town West","short_name":"Old Town West","types":["neighborhood","political"]},{"long_name":"Alexandria","short_name":"Alexandria","types":["locality","political"]},{"long_name":"Virginia","short_name":"VA","types":["administrative_area_level_1","political"]},{"long_name":"United States","short_name":"US","types":["country","political"]},{"long_name":"22314","short_name":"22314","types":["postal_code"]},{"long_name":"2442","short_name":"2442","types":["postal_code_suffix"]}],"formatted_address":"311 N Patrick St, Alexandria, VA 22314, USA","geometry":{"location":{"lat":38.808048,"lng":-77.04940599999999},"location_type":"ROOFTOP","viewport":{"northeast":{"lat":38.8093969802915,"lng":-77.0480570197085},"southwest":{"lat":38.8066990197085,"lng":-77.0507549802915}}},"partial_match":true,"place_id":"ChIJuf37Ivmwt4kRxnwqmyZ0l0E","types":["street_address"]}],"status":"OK"},"820 Duke":{"results":[{"address_components":[{"long_name":"820","short_name":"820","types":["street_number"]},{"long_name":"Duke Street","short_name":"Duke St","types":["route"]},{"long_name":"Southwest Quadrant","short_name":"Southwest Quadrant","types":["neighborhood","political"]},{"long_name":"Alexandria","short_name":"Alexandria","types":["locality","political"]},{"long_name":"Virginia","short_name":"VA","types":["administrative_area_level_1","political"]},{"long_name":"United States","short_name":"US","types":["country","political"]},{"long_name":"22314","short_name":"22314","types":["postal_code"]},{"long_name":"3624","short_name":"3624","types":["postal_code_suffix"]}],"formatted_address":"820 Duke St, Alexandria, VA 22314, USA","geometry":{"location":{"lat":38.802822,"lng":-77.04942299999999},"location_type":"ROOFTOP","viewport":{"northeast":{"lat":38.8041709802915,"lng":-77.04807401970848},"southwest":{"lat":38.8014730197085,"lng":-77.05077198029149}}},"partial_match":true,"place_id":"ChIJH24eZ1awt4kREZbiknpEQO4","types":["street_address"]}],"status":"OK"},"712 N Henry":{"results":[{"address_components":[{"long_name":"712","short_name":"712","types":["street_number"]},{"long_name":"North Henry Street","short_name":"N Henry St","types":["route"]},{"long_name":"Old Town West","short_name":"Old Town West","types":["neighborhood","political"]},{"long_name":"Alexandria","short_name":"Alexandria","types":["locality","political"]},{"long_name":"Virginia","short_name":"VA","types":["administrative_area_level_1","political"]},{"long_name":"United States","short_name":"US","types":["country","political"]},{"long_name":"22314","short_name":"22314","types":["postal_code"]},{"long_name":"1829","short_name":"1829","types":["postal_code_suffix"]}],"formatted_address":"712 N Henry St, Alexandria, VA 22314, USA","geometry":{"location":{"lat":38.812992,"lng":-77.050017},"location_type":"ROOFTOP","viewport":{"northeast":{"lat":38.8143409802915,"lng":-77.04866801970849},"southwest":{"lat":38.81164301970851,"lng":-77.0513659802915}}},"partial_match":true,"place_id":"ChIJUc7Cefuwt4kRknR74q6aYyA","types":["street_address"]}],"status":"OK"},"601 S Columbus":{"results":[{"address_components":[{"long_name":"601","short_name":"601","types":["street_number"]},{"long_name":"South Columbus Street","short_name":"S Columbus St","types":["route"]},{"long_name":"Southwest Quadrant","short_name":"Southwest Quadrant","types":["neighborhood","political"]},{"long_name":"Alexandria","short_name":"Alexandria","types":["locality","political"]},{"long_name":"Virginia","short_name":"VA","types":["administrative_area_level_1","political"]},{"long_name":"United States","short_name":"US","types":["country","political"]},{"long_name":"22314","short_name":"22314","types":["postal_code"]},{"long_name":"4101","short_name":"4101","types":["postal_code_suffix"]}],"formatted_address":"601 S Columbus St, Alexandria, VA 22314, USA","geometry":{"location":{"lat":38.799416,"lng":-77.049544},"location_type":"ROOFTOP","viewport":{"northeast":{"lat":38.8007649802915,"lng":-77.04819501970849},"southwest":{"lat":38.7980670197085,"lng":-77.0508929802915}}},"partial_match":true,"place_id":"ChIJeYs7SVGwt4kR0C9N2mAx7do","types":["street_address"]}],"status":"OK"},"1116 Madison":{"results":[{"address_components":[{"long_name":"1116","short_name":"1116","types":["street_number"]},{"long_name":"Madison Street","short_name":"Madison St","types":["route"]},{"long_name":"Old Town West","short_name":"Old Town West","types":["neighborhood","political"]},{"long_name":"Alexandria","short_name":"Alexandria","types":["locality","political"]},{"long_name":"Virginia","short_name":"VA","types":["administrative_area_level_1","political"]},{"long_name":"United States","short_name":"US","types":["country","political"]},{"long_name":"22314","short_name":"22314","types":["postal_code"]}],"formatted_address":"1116 Madison St, Alexandria, VA 22314, USA","geometry":{"bounds":{"northeast":{"lat":38.8136629,"lng":-77.05031790000001},"southwest":{"lat":38.8136485,"lng":-77.050321}},"location":{"lat":38.8136485,"lng":-77.050321},"location_type":"RANGE_INTERPOLATED","viewport":{"northeast":{"lat":38.8150046802915,"lng":-77.04897046970851},"southwest":{"lat":38.8123067197085,"lng":-77.05166843029151}}},"partial_match":true,"place_id":"EioxMTE2IE1hZGlzb24gU3QsIEFsZXhhbmRyaWEsIFZBIDIyMzE0LCBVU0E","types":["street_address"]}],"status":"OK"},"623 S Alfred":{"results":[{"address_components":[{"long_name":"623","short_name":"623","types":["street_number"]},{"long_name":"South Alfred Street","short_name":"S Alfred St","types":["route"]},{"long_name":"Southwest Quadrant","short_name":"Southwest Quadrant","types":["neighborhood","political"]},{"long_name":"Alexandria","short_name":"Alexandria","types":["locality","political"]},{"long_name":"Virginia","short_name":"VA","types":["administrative_area_level_1","political"]},{"long_name":"United States","short_name":"US","types":["country","political"]},{"long_name":"22314","short_name":"22314","types":["postal_code"]},{"long_name":"4063","short_name":"4063","types":["postal_code_suffix"]}],"formatted_address":"623 S Alfred St, Alexandria, VA 22314, USA","geometry":{"location":{"lat":38.798955,"lng":-77.050827},"location_type":"ROOFTOP","viewport":{"northeast":{"lat":38.8003039802915,"lng":-77.0494780197085},"southwest":{"lat":38.7976060197085,"lng":-77.05217598029151}}},"partial_match":true,"place_id":"ChIJbdCZ4VOwt4kR-Fp3F4bd30o","types":["street_address"]}],"status":"OK"},"614 S Washington":{"results":[{"address_components":[{"long_name":"614","short_name":"614","types":["street_number"]},{"long_name":"South Washington Street","short_name":"S Washington St","types":["route"]},{"long_name":"Old Town","short_name":"Old Town","types":["neighborhood","political"]},{"long_name":"Alexandria","short_name":"Alexandria","types":["locality","political"]},{"long_name":"Virginia","short_name":"VA","types":["administrative_area_level_1","political"]},{"long_name":"United States","short_name":"US","types":["country","political"]},{"long_name":"22314","short_name":"22314","types":["postal_code"]},{"long_name":"4110","short_name":"4110","types":["postal_code_suffix"]}],"formatted_address":"614 S Washington St, Alexandria, VA 22314, USA","geometry":{"location":{"lat":38.798685,"lng":-77.04793599999999},"location_type":"ROOFTOP","viewport":{"northeast":{"lat":38.8000339802915,"lng":-77.0465870197085},"southwest":{"lat":38.7973360197085,"lng":-77.0492849802915}}},"partial_match":true,"place_id":"ChIJx7PNIFGwt4kRePz-rYBxyQ8","types":["street_address"]}],"status":"OK"},"718 Henry":{"results":[{"address_components":[{"long_name":"718","short_name":"718","types":["street_number"]},{"long_name":"North Henry Street","short_name":"N Henry St","types":["route"]},{"long_name":"Old Town West","short_name":"Old Town West","types":["neighborhood","political"]},{"long_name":"Alexandria","short_name":"Alexandria","types":["locality","political"]},{"long_name":"Virginia","short_name":"VA","types":["administrative_area_level_1","political"]},{"long_name":"United States","short_name":"US","types":["country","political"]},{"long_name":"22314","short_name":"22314","types":["postal_code"]},{"long_name":"1829","short_name":"1829","types":["postal_code_suffix"]}],"formatted_address":"718 N Henry St, Alexandria, VA 22314, USA","geometry":{"location":{"lat":38.813122,"lng":-77.049988},"location_type":"ROOFTOP","viewport":{"northeast":{"lat":38.8144709802915,"lng":-77.04863901970849},"southwest":{"lat":38.8117730197085,"lng":-77.0513369802915}}},"partial_match":true,"place_id":"ChIJ38AIevuwt4kRvfiy6_6wmp8","types":["street_address"]}],"status":"OK"},"809 S Fairfax":{"results":[{"address_components":[{"long_name":"809","short_name":"809","types":["street_number"]},{"long_name":"South Fairfax Street","short_name":"S Fairfax St","types":["route"]},{"long_name":"Old Town","short_name":"Old Town","types":["neighborhood","political"]},{"long_name":"Alexandria","short_name":"Alexandria","types":["locality","political"]},{"long_name":"Virginia","short_name":"VA","types":["administrative_area_level_1","political"]},{"long_name":"United States","short_name":"US","types":["country","political"]},{"long_name":"22314","short_name":"22314","types":["postal_code"]},{"long_name":"4311","short_name":"4311","types":["postal_code_suffix"]}],"formatted_address":"809 S Fairfax St, Alexandria, VA 22314, USA","geometry":{"location":{"lat":38.796131,"lng":-77.0446709},"location_type":"ROOFTOP","viewport":{"northeast":{"lat":38.7974799802915,"lng":-77.0433219197085},"southwest":{"lat":38.7947820197085,"lng":-77.04601988029151}}},"partial_match":true,"place_id":"ChIJ5_c4g1qwt4kRlS1QZZRenUk","types":["street_address"]}],"status":"OK"},"820 Queen":{"results":[{"address_components":[{"long_name":"820","short_name":"820","types":["street_number"]},{"long_name":"Queen Street","short_name":"Queen St","types":["route"]},{"long_name":"Old Town West","short_name":"Old Town West","types":["neighborhood","political"]},{"long_name":"Alexandria","short_name":"Alexandria","types":["locality","political"]},{"long_name":"Virginia","short_name":"VA","types":["administrative_area_level_1","political"]},{"long_name":"United States","short_name":"US","types":["country","political"]},{"long_name":"22314","short_name":"22314","types":["postal_code"]}],"formatted_address":"820 Queen St, Alexandria, VA 22314, USA","geometry":{"location":{"lat":38.80733499999999,"lng":-77.04849329999999},"location_type":"ROOFTOP","viewport":{"northeast":{"lat":38.80868398029149,"lng":-77.0471443197085},"southwest":{"lat":38.80598601970849,"lng":-77.0498422802915}}},"partial_match":true,"place_id":"ChIJoes7_fiwt4kR0XW8XAbJFDo","types":["street_address"]}],"status":"OK"},"344 Commerce":{"results":[{"address_components":[{"long_name":"344","short_name":"344","types":["street_number"]},{"long_name":"Commerce Street","short_name":"Commerce St","types":["route"]},{"long_name":"Old Town","short_name":"Old Town","types":["neighborhood","political"]},{"long_name":"Alexandria","short_name":"Alexandria","types":["locality","political"]},{"long_name":"Virginia","short_name":"VA","types":["administrative_area_level_1","political"]},{"long_name":"United States","short_name":"US","types":["country","political"]},{"long_name":"22314","short_name":"22314","types":["postal_code"]},{"long_name":"2802","short_name":"2802","types":["postal_code_suffix"]}],"formatted_address":"344 Commerce St, Alexandria, VA 22314, USA","geometry":{"location":{"lat":38.8042818,"lng":-77.05652909999999},"location_type":"ROOFTOP","viewport":{"northeast":{"lat":38.8056307802915,"lng":-77.05518011970848},"southwest":{"lat":38.8029328197085,"lng":-77.0578780802915}}},"partial_match":true,"place_id":"ChIJo-Nsy6qxt4kRGIwCroZBUi8","types":["street_address"]}],"status":"OK"},"1311 Queen":{"results":[{"address_components":[{"long_name":"1311","short_name":"1311","types":["street_number"]},{"long_name":"Queen Street","short_name":"Queen St","types":["route"]},{"long_name":"Old Town West","short_name":"Old Town West","types":["neighborhood","political"]},{"long_name":"Alexandria","short_name":"Alexandria","types":["locality","political"]},{"long_name":"Virginia","short_name":"VA","types":["administrative_area_level_1","political"]},{"long_name":"United States","short_name":"US","types":["country","political"]},{"long_name":"22314","short_name":"22314","types":["postal_code"]},{"long_name":"2405","short_name":"2405","types":["postal_code_suffix"]}],"formatted_address":"1311 Queen St, Alexandria, VA 22314, USA","geometry":{"location":{"lat":38.808425,"lng":-77.05345299999999},"location_type":"ROOFTOP","viewport":{"northeast":{"lat":38.8097739802915,"lng":-77.0521040197085},"southwest":{"lat":38.8070760197085,"lng":-77.0548019802915}}},"partial_match":true,"place_id":"ChIJx6Tu-P6wt4kRtb6KP8OMle4","types":["street_address"]}],"status":"OK"},"719 N Henry":{"results":[{"address_components":[{"long_name":"719","short_name":"719","types":["street_number"]},{"long_name":"North Henry Street","short_name":"N Henry St","types":["route"]},{"long_name":"Old Town West","short_name":"Old Town West","types":["neighborhood","political"]},{"long_name":"Alexandria","short_name":"Alexandria","types":["locality","political"]},{"long_name":"Virginia","short_name":"VA","types":["administrative_area_level_1","political"]},{"long_name":"United States","short_name":"US","types":["country","political"]},{"long_name":"22314","short_name":"22314","types":["postal_code"]},{"long_name":"1828","short_name":"1828","types":["postal_code_suffix"]}],"formatted_address":"719 N Henry St, Alexandria, VA 22314, USA","geometry":{"bounds":{"northeast":{"lat":38.8131778,"lng":-77.0497298},"southwest":{"lat":38.8131755,"lng":-77.04974829999999}},"location":{"lat":38.8131755,"lng":-77.0497298},"location_type":"RANGE_INTERPOLATED","viewport":{"northeast":{"lat":38.8145256302915,"lng":-77.04839006970849},"southwest":{"lat":38.81182766970851,"lng":-77.05108803029151}}},"partial_match":true,"place_id":"Eik3MTkgTiBIZW5yeSBTdCwgQWxleGFuZHJpYSwgVkEgMjIzMTQsIFVTQQ","types":["street_address"]}],"status":"OK"},"508 Gibbon":{"results":[{"address_components":[{"long_name":"508","short_name":"508","types":["street_number"]},{"long_name":"Gibbon Street","short_name":"Gibbon St","types":["route"]},{"long_name":"Old Town","short_name":"Old Town","types":["neighborhood","political"]},{"long_name":"Alexandria","short_name":"Alexandria","types":["locality","political"]},{"long_name":"Virginia","short_name":"VA","types":["administrative_area_level_1","political"]},{"long_name":"United States","short_name":"US","types":["country","political"]},{"long_name":"22314","short_name":"22314","types":["postal_code"]},{"long_name":"4134","short_name":"4134","types":["postal_code_suffix"]}],"formatted_address":"508 Gibbon St, Alexandria, VA 22314, USA","geometry":{"location":{"lat":38.798953,"lng":-77.046414},"location_type":"ROOFTOP","viewport":{"northeast":{"lat":38.8003019802915,"lng":-77.04506501970849},"southwest":{"lat":38.7976040197085,"lng":-77.04776298029151}}},"partial_match":true,"place_id":"ChIJDbokyFCwt4kR_yFBIKa7_d0","types":["street_address"]}],"status":"OK"},"627 S St Asaph":{"results":[{"address_components":[{"long_name":"627","short_name":"627","types":["street_number"]},{"long_name":"South Saint Asaph Street","short_name":"S St Asaph St","types":["route"]},{"long_name":"Old Town","short_name":"Old Town","types":["neighborhood","political"]},{"long_name":"Alexandria","short_name":"Alexandria","types":["locality","political"]},{"long_name":"Virginia","short_name":"VA","types":["administrative_area_level_1","political"]},{"long_name":"United States","short_name":"US","types":["country","political"]},{"long_name":"22314","short_name":"22314","types":["postal_code"]},{"long_name":"4118","short_name":"4118","types":["postal_code_suffix"]}],"formatted_address":"627 S St Asaph St, Alexandria, VA 22314, USA","geometry":{"location":{"lat":38.798513,"lng":-77.047535},"location_type":"ROOFTOP","viewport":{"northeast":{"lat":38.7998619802915,"lng":-77.0461860197085},"southwest":{"lat":38.7971640197085,"lng":-77.0488839802915}}},"partial_match":true,"place_id":"ChIJS56M3lCwt4kRYhtYvQBzWbo","types":["street_address"]}],"status":"OK"},"421 S St Asaph":{"results":[{"address_components":[{"long_name":"421","short_name":"421","types":["street_number"]},{"long_name":"South Saint Asaph Street","short_name":"S St Asaph St","types":["route"]},{"long_name":"Old Town","short_name":"Old Town","types":["neighborhood","political"]},{"long_name":"Alexandria","short_name":"Alexandria","types":["locality","political"]},{"long_name":"Virginia","short_name":"VA","types":["administrative_area_level_1","political"]},{"long_name":"United States","short_name":"US","types":["country","political"]},{"long_name":"22314","short_name":"22314","types":["postal_code"]},{"long_name":"3747","short_name":"3747","types":["postal_code_suffix"]}],"formatted_address":"421 S St Asaph St, Alexandria, VA 22314, USA","geometry":{"location":{"lat":38.800783,"lng":-77.0469619},"location_type":"ROOFTOP","viewport":{"northeast":{"lat":38.80213198029149,"lng":-77.0456129197085},"southwest":{"lat":38.7994340197085,"lng":-77.04831088029151}}},"partial_match":true,"place_id":"ChIJFRNuPVewt4kRpbgHlAFKKJw","types":["street_address"]}],"status":"OK"},"526 Gibbon":{"results":[{"address_components":[{"long_name":"526","short_name":"526","types":["street_number"]},{"long_name":"Gibbon Street","short_name":"Gibbon St","types":["route"]},{"long_name":"Old Town","short_name":"Old Town","types":["neighborhood","political"]},{"long_name":"Alexandria","short_name":"Alexandria","types":["locality","political"]},{"long_name":"Virginia","short_name":"VA","types":["administrative_area_level_1","political"]},{"long_name":"United States","short_name":"US","types":["country","political"]},{"long_name":"22314","short_name":"22314","types":["postal_code"]},{"long_name":"4134","short_name":"4134","types":["postal_code_suffix"]}],"formatted_address":"526 Gibbon St, Alexandria, VA 22314, USA","geometry":{"location":{"lat":38.79901,"lng":-77.046874},"location_type":"ROOFTOP","viewport":{"northeast":{"lat":38.80035898029149,"lng":-77.0455250197085},"southwest":{"lat":38.7976610197085,"lng":-77.04822298029151}}},"partial_match":true,"place_id":"ChIJH0wOz1Cwt4kRaqCTyvvfZIA","types":["street_address"]}],"status":"OK"},"617 S Alfred":{"results":[{"address_components":[{"long_name":"617","short_name":"617","types":["street_number"]},{"long_name":"South Alfred Street","short_name":"S Alfred St","types":["route"]},{"long_name":"Southwest Quadrant","short_name":"Southwest Quadrant","types":["neighborhood","political"]},{"long_name":"Alexandria","short_name":"Alexandria","types":["locality","political"]},{"long_name":"Virginia","short_name":"VA","types":["administrative_area_level_1","political"]},{"long_name":"United States","short_name":"US","types":["country","political"]},{"long_name":"22314","short_name":"22314","types":["postal_code"]}],"formatted_address":"617 S Alfred St, Alexandria, VA 22314, USA","geometry":{"bounds":{"northeast":{"lat":38.7991114,"lng":-77.0505154},"southwest":{"lat":38.799109,"lng":-77.05053389999999}},"location":{"lat":38.7991114,"lng":-77.05053389999999},"location_type":"RANGE_INTERPOLATED","viewport":{"northeast":{"lat":38.8004591802915,"lng":-77.04917566970848},"southwest":{"lat":38.79776121970851,"lng":-77.0518736302915}}},"partial_match":true,"place_id":"Eio2MTcgUyBBbGZyZWQgU3QsIEFsZXhhbmRyaWEsIFZBIDIyMzE0LCBVU0E","types":["street_address"]}],"status":"OK"},"517 Franklin":{"results":[{"address_components":[{"long_name":"517","short_name":"517","types":["street_number"]},{"long_name":"Franklin Street","short_name":"Franklin St","types":["route"]},{"long_name":"Old Town","short_name":"Old Town","types":["neighborhood","political"]},{"long_name":"Alexandria","short_name":"Alexandria","types":["locality","political"]},{"long_name":"Virginia","short_name":"VA","types":["administrative_area_level_1","political"]},{"long_name":"United States","short_name":"US","types":["country","political"]},{"long_name":"22314","short_name":"22314","types":["postal_code"]},{"long_name":"4124","short_name":"4124","types":["postal_code_suffix"]}],"formatted_address":"517 Franklin St, Alexandria, VA 22314, USA","geometry":{"bounds":{"northeast":{"lat":38.7980017,"lng":-77.0468767},"southwest":{"lat":38.7979872,"lng":-77.0468799}},"location":{"lat":38.7980017,"lng":-77.0468767},"location_type":"RANGE_INTERPOLATED","viewport":{"northeast":{"lat":38.7993434302915,"lng":-77.0455293197085},"southwest":{"lat":38.7966454697085,"lng":-77.04822728029151}}},"partial_match":true,"place_id":"Eio1MTcgRnJhbmtsaW4gU3QsIEFsZXhhbmRyaWEsIFZBIDIyMzE0LCBVU0E","types":["street_address"]}],"status":"OK"},"1323 Duke":{"results":[{"address_components":[{"long_name":"1323","short_name":"1323","types":["street_number"]},{"long_name":"Duke Street","short_name":"Duke St","types":["route"]},{"long_name":"Old Town","short_name":"Old Town","types":["neighborhood","political"]},{"long_name":"Alexandria","short_name":"Alexandria","types":["locality","political"]},{"long_name":"Virginia","short_name":"VA","types":["administrative_area_level_1","political"]},{"long_name":"United States","short_name":"US","types":["country","political"]},{"long_name":"22314","short_name":"22314","types":["postal_code"]},{"long_name":"3509","short_name":"3509","types":["postal_code_suffix"]}],"formatted_address":"1323 Duke St, Alexandria, VA 22314, USA","geometry":{"bounds":{"northeast":{"lat":38.8039491,"lng":-77.05488989999999},"southwest":{"lat":38.8038447,"lng":-77.0549609}},"location":{"lat":38.80389690000001,"lng":-77.0549254},"location_type":"ROOFTOP","viewport":{"northeast":{"lat":38.80524588029149,"lng":-77.05357641970849},"southwest":{"lat":38.80254791970849,"lng":-77.0562743802915}}},"partial_match":true,"place_id":"ChIJSaU_FlWwt4kRhdoPoRY_djw","types":["premise"]}],"status":"OK"},"600 S Washington":{"results":[{"address_components":[{"long_name":"600","short_name":"600","types":["street_number"]},{"long_name":"South Washington Street","short_name":"S Washington St","types":["route"]},{"long_name":"Southwest Quadrant","short_name":"Southwest Quadrant","types":["neighborhood","political"]},{"long_name":"Alexandria","short_name":"Alexandria","types":["locality","political"]},{"long_name":"Virginia","short_name":"VA","types":["administrative_area_level_1","political"]},{"long_name":"United States","short_name":"US","types":["country","political"]},{"long_name":"22314","short_name":"22314","types":["postal_code"]},{"long_name":"4110","short_name":"4110","types":["postal_code_suffix"]}],"formatted_address":"600 S Washington St, Alexandria, VA 22314, USA","geometry":{"location":{"lat":38.7992031,"lng":-77.0479982},"location_type":"ROOFTOP","viewport":{"northeast":{"lat":38.8005520802915,"lng":-77.04664921970848},"southwest":{"lat":38.7978541197085,"lng":-77.0493471802915}}},"partial_match":true,"place_id":"ChIJ07uxKVGwt4kRaBIeJxkCUaQ","types":["street_address"]}],"status":"OK"},"318 N Henry":{"results":[{"address_components":[{"long_name":"318","short_name":"318","types":["street_number"]},{"long_name":"North Henry Street","short_name":"N Henry St","types":["route"]},{"long_name":"Old Town West","short_name":"Old Town West","types":["neighborhood","political"]},{"long_name":"Alexandria","short_name":"Alexandria","types":["locality","political"]},{"long_name":"Virginia","short_name":"VA","types":["administrative_area_level_1","political"]},{"long_name":"United States","short_name":"US","types":["country","political"]},{"long_name":"22314","short_name":"22314","types":["postal_code"]},{"long_name":"2439","short_name":"2439","types":["postal_code_suffix"]}],"formatted_address":"318 N Henry St, Alexandria, VA 22314, USA","geometry":{"bounds":{"northeast":{"lat":38.8086357,"lng":-77.0508828},"southwest":{"lat":38.808547,"lng":-77.0511776}},"location":{"lat":38.8085914,"lng":-77.0510302},"location_type":"ROOFTOP","viewport":{"northeast":{"lat":38.8099403302915,"lng":-77.04968121970849},"southwest":{"lat":38.8072423697085,"lng":-77.05237918029151}}},"partial_match":true,"place_id":"ChIJw7ImzP6wt4kRz0Ov21OjLS4","types":["premise"]}],"status":"OK"},"608 S Columbus":{"results":[{"address_components":[{"long_name":"608","short_name":"608","types":["street_number"]},{"long_name":"South Columbus Street","short_name":"S Columbus St","types":["route"]},{"long_name":"Southwest Quadrant","short_name":"Southwest Quadrant","types":["neighborhood","political"]},{"long_name":"Alexandria","short_name":"Alexandria","types":["locality","political"]},{"long_name":"Virginia","short_name":"VA","types":["administrative_area_level_1","political"]},{"long_name":"United States","short_name":"US","types":["country","political"]},{"long_name":"22314","short_name":"22314","types":["postal_code"]}],"formatted_address":"608 S Columbus St, Alexandria, VA 22314, USA","geometry":{"bounds":{"northeast":{"lat":38.7989092,"lng":-77.0494473},"southwest":{"lat":38.7989068,"lng":-77.0494658}},"location":{"lat":38.7989068,"lng":-77.0494473},"location_type":"RANGE_INTERPOLATED","viewport":{"northeast":{"lat":38.8002569802915,"lng":-77.04810756970849},"southwest":{"lat":38.7975590197085,"lng":-77.0508055302915}}},"partial_match":true,"place_id":"Eiw2MDggUyBDb2x1bWJ1cyBTdCwgQWxleGFuZHJpYSwgVkEgMjIzMTQsIFVTQQ","types":["street_address"]}],"status":"OK"},"237 N West":{"results":[{"address_components":[{"long_name":"237","short_name":"237","types":["street_number"]},{"long_name":"North West Street","short_name":"N West St","types":["route"]},{"long_name":"Old Town West","short_name":"Old Town West","types":["neighborhood","political"]},{"long_name":"Alexandria","short_name":"Alexandria","types":["locality","political"]},{"long_name":"Virginia","short_name":"VA","types":["administrative_area_level_1","political"]},{"long_name":"United States","short_name":"US","types":["country","political"]},{"long_name":"22314","short_name":"22314","types":["postal_code"]},{"long_name":"2118","short_name":"2118","types":["postal_code_suffix"]}],"formatted_address":"237 N West St, Alexandria, VA 22314, USA","geometry":{"bounds":{"northeast":{"lat":38.80820569999999,"lng":-77.05387859999999},"southwest":{"lat":38.8081191,"lng":-77.0540578}},"location":{"lat":38.80816240000001,"lng":-77.0539682},"location_type":"ROOFTOP","viewport":{"northeast":{"lat":38.8095113802915,"lng":-77.0526192197085},"southwest":{"lat":38.8068134197085,"lng":-77.05531718029151}}},"partial_match":true,"place_id":"ChIJx227rP-wt4kR8qdcJ-AZQP0","types":["premise"]}],"status":"OK"},"813 N Washington":{"results":[{"address_components":[{"long_name":"813","short_name":"813","types":["street_number"]},{"long_name":"North Washington Street","short_name":"N Washington St","types":["route"]},{"long_name":"Old Town West","short_name":"Old Town West","types":["neighborhood","political"]},{"long_name":"Alexandria","short_name":"Alexandria","types":["locality","political"]},{"long_name":"Virginia","short_name":"VA","types":["administrative_area_level_1","political"]},{"long_name":"United States","short_name":"US","types":["country","political"]},{"long_name":"22314","short_name":"22314","types":["postal_code"]}],"formatted_address":"813 N Washington St, Alexandria, VA 22314, USA","geometry":{"bounds":{"northeast":{"lat":38.813591,"lng":-77.0451018},"southwest":{"lat":38.8135886,"lng":-77.04512030000001}},"location":{"lat":38.8135886,"lng":-77.0451018},"location_type":"RANGE_INTERPOLATED","viewport":{"northeast":{"lat":38.8149387802915,"lng":-77.0437620697085},"southwest":{"lat":38.8122408197085,"lng":-77.04646003029151}}},"partial_match":true,"place_id":"Ei44MTMgTiBXYXNoaW5ndG9uIFN0LCBBbGV4YW5kcmlhLCBWQSAyMjMxNCwgVVNB","types":["street_address"]}],"status":"OK"},"307 N West":{"results":[{"address_components":[{"long_name":"307","short_name":"307","types":["street_number"]},{"long_name":"North West Street","short_name":"N West St","types":["route"]},{"long_name":"Old Town West","short_name":"Old Town West","types":["neighborhood","political"]},{"long_name":"Alexandria","short_name":"Alexandria","types":["locality","political"]},{"long_name":"Virginia","short_name":"VA","types":["administrative_area_level_1","political"]},{"long_name":"United States","short_name":"US","types":["country","political"]},{"long_name":"22314","short_name":"22314","types":["postal_code"]},{"long_name":"2120","short_name":"2120","types":["postal_code_suffix"]}],"formatted_address":"307 N West St, Alexandria, VA 22314, USA","geometry":{"location":{"lat":38.808693,"lng":-77.053737},"location_type":"ROOFTOP","viewport":{"northeast":{"lat":38.8100419802915,"lng":-77.05238801970849},"southwest":{"lat":38.8073440197085,"lng":-77.05508598029151}}},"partial_match":true,"place_id":"ChIJlXgrWP6wt4kRbwvIvhOygS0","types":["street_address"]}],"status":"OK"},"816 Duke":{"results":[{"address_components":[{"long_name":"816","short_name":"816","types":["street_number"]},{"long_name":"Duke Street","short_name":"Duke St","types":["route"]},{"long_name":"Southwest Quadrant","short_name":"Southwest Quadrant","types":["neighborhood","political"]},{"long_name":"Alexandria","short_name":"Alexandria","types":["locality","political"]},{"long_name":"Virginia","short_name":"VA","types":["administrative_area_level_1","political"]},{"long_name":"United States","short_name":"US","types":["country","political"]},{"long_name":"22314","short_name":"22314","types":["postal_code"]},{"long_name":"3624","short_name":"3624","types":["postal_code_suffix"]}],"formatted_address":"816 Duke St, Alexandria, VA 22314, USA","geometry":{"location":{"lat":38.802805,"lng":-77.04928799999999},"location_type":"ROOFTOP","viewport":{"northeast":{"lat":38.8041539802915,"lng":-77.04793901970848},"southwest":{"lat":38.8014560197085,"lng":-77.05063698029149}}},"partial_match":true,"place_id":"ChIJC2lmZ1awt4kR0dhHPOhP6wU","types":["street_address"]}],"status":"OK"},"600 S Columbus":{"results":[{"address_components":[{"long_name":"600","short_name":"600","types":["street_number"]},{"long_name":"South Columbus Street","short_name":"S Columbus St","types":["route"]},{"long_name":"Southwest Quadrant","short_name":"Southwest Quadrant","types":["neighborhood","political"]},{"long_name":"Alexandria","short_name":"Alexandria","types":["locality","political"]},{"long_name":"Virginia","short_name":"VA","types":["administrative_area_level_1","political"]},{"long_name":"United States","short_name":"US","types":["country","political"]},{"long_name":"22314","short_name":"22314","types":["postal_code"]}],"formatted_address":"600 S Columbus St, Alexandria, VA 22314, USA","geometry":{"bounds":{"northeast":{"lat":38.7995104,"lng":-77.0493154},"southwest":{"lat":38.799508,"lng":-77.0493339}},"location":{"lat":38.799508,"lng":-77.0493154},"location_type":"RANGE_INTERPOLATED","viewport":{"northeast":{"lat":38.8008581802915,"lng":-77.04797566970849},"southwest":{"lat":38.7981602197085,"lng":-77.05067363029151}}},"partial_match":true,"place_id":"Eiw2MDAgUyBDb2x1bWJ1cyBTdCwgQWxleGFuZHJpYSwgVkEgMjIzMTQsIFVTQQ","types":["street_address"]}],"status":"OK"},"507 S Columbus":{"results":[{"address_components":[{"long_name":"507","short_name":"507","types":["street_number"]},{"long_name":"South Columbus Street","short_name":"S Columbus St","types":["route"]},{"long_name":"Southwest Quadrant","short_name":"Southwest Quadrant","types":["neighborhood","political"]},{"long_name":"Alexandria","short_name":"Alexandria","types":["locality","political"]},{"long_name":"Virginia","short_name":"VA","types":["administrative_area_level_1","political"]},{"long_name":"United States","short_name":"US","types":["country","political"]},{"long_name":"22314","short_name":"22314","types":["postal_code"]}],"formatted_address":"507 S Columbus St, Alexandria, VA 22314, USA","geometry":{"bounds":{"northeast":{"lat":38.8005087,"lng":-77.049114},"southwest":{"lat":38.8005062,"lng":-77.0491325}},"location":{"lat":38.8005087,"lng":-77.0491325},"location_type":"RANGE_INTERPOLATED","viewport":{"northeast":{"lat":38.8018564302915,"lng":-77.0477742697085},"southwest":{"lat":38.7991584697085,"lng":-77.0504722302915}}},"partial_match":true,"place_id":"Eiw1MDcgUyBDb2x1bWJ1cyBTdCwgQWxleGFuZHJpYSwgVkEgMjIzMTQsIFVTQQ","types":["street_address"]}],"status":"OK"},"724 Gibbon":{"results":[{"address_components":[{"long_name":"724","short_name":"724","types":["street_number"]},{"long_name":"Gibbon Street","short_name":"Gibbon St","types":["route"]},{"long_name":"Southwest Quadrant","short_name":"Southwest Quadrant","types":["neighborhood","political"]},{"long_name":"Alexandria","short_name":"Alexandria","types":["locality","political"]},{"long_name":"Virginia","short_name":"VA","types":["administrative_area_level_1","political"]},{"long_name":"United States","short_name":"US","types":["country","political"]},{"long_name":"22314","short_name":"22314","types":["postal_code"]},{"long_name":"4108","short_name":"4108","types":["postal_code_suffix"]}],"formatted_address":"724 Gibbon St, Alexandria, VA 22314, USA","geometry":{"bounds":{"northeast":{"lat":38.7993755,"lng":-77.0491412},"southwest":{"lat":38.7992482,"lng":-77.0492314}},"location":{"lat":38.7993118,"lng":-77.04918630000002},"location_type":"ROOFTOP","viewport":{"northeast":{"lat":38.8006608302915,"lng":-77.04783731970849},"southwest":{"lat":38.7979628697085,"lng":-77.0505352802915}}},"partial_match":true,"place_id":"ChIJbeepN1Gwt4kRvUzlLeX3n_M","types":["premise"]}],"status":"OK"},"1012 Oronoco":{"results":[{"address_components":[{"long_name":"1012","short_name":"1012","types":["street_number"]},{"long_name":"Oronoco Street","short_name":"Oronoco St","types":["route"]},{"long_name":"Old Town West","short_name":"Old Town West","types":["neighborhood","political"]},{"long_name":"Alexandria","short_name":"Alexandria","types":["locality","political"]},{"long_name":"Virginia","short_name":"VA","types":["administrative_area_level_1","political"]},{"long_name":"United States","short_name":"US","types":["country","political"]},{"long_name":"22314","short_name":"22314","types":["postal_code"]},{"long_name":"2237","short_name":"2237","types":["postal_code_suffix"]}],"formatted_address":"1012 Oronoco St, Alexandria, VA 22314, USA","geometry":{"bounds":{"northeast":{"lat":38.8100306,"lng":-77.0499367},"southwest":{"lat":38.8099044,"lng":-77.0500148}},"location":{"lat":38.8099675,"lng":-77.04997569999999},"location_type":"ROOFTOP","viewport":{"northeast":{"lat":38.8113164802915,"lng":-77.04862676970849},"southwest":{"lat":38.8086185197085,"lng":-77.05132473029151}}},"partial_match":true,"place_id":"ChIJH3RlV_mwt4kRF3zpuwSkfps","types":["premise"]}],"status":"OK"},"622 1/2 N Alfred":{"results":[{"address_components":[{"long_name":"622-1/2","short_name":"622-1/2","types":["street_number"]},{"long_name":"South Alfred Street","short_name":"S Alfred St","types":["route"]},{"long_name":"Old Town West","short_name":"Old Town West","types":["neighborhood","political"]},{"long_name":"Alexandria","short_name":"Alexandria","types":["locality","political"]},{"long_name":"Virginia","short_name":"VA","types":["administrative_area_level_1","political"]},{"long_name":"United States","short_name":"US","types":["country","political"]},{"long_name":"22314","short_name":"22314","types":["postal_code"]}],"formatted_address":"622-1/2 S Alfred St, Alexandria, VA 22314, USA","geometry":{"location":{"lat":38.81169,"lng":-77.048109},"location_type":"ROOFTOP","viewport":{"northeast":{"lat":38.8130389802915,"lng":-77.04676001970849},"southwest":{"lat":38.8103410197085,"lng":-77.0494579802915}}},"partial_match":true,"place_id":"ChIJmcrFs_uwt4kReat1m2A1lTA","types":["street_address"]}],"status":"OK"},"320 Oronoco":{"results":[{"address_components":[{"long_name":"320","short_name":"320","types":["street_number"]},{"long_name":"Oronoco Street","short_name":"Oronoco St","types":["route"]},{"long_name":"Old Town","short_name":"Old Town","types":["neighborhood","political"]},{"long_name":"Alexandria","short_name":"Alexandria","types":["locality","political"]},{"long_name":"Virginia","short_name":"VA","types":["administrative_area_level_1","political"]},{"long_name":"United States","short_name":"US","types":["country","political"]},{"long_name":"22314","short_name":"22314","types":["postal_code"]},{"long_name":"2020","short_name":"2020","types":["postal_code_suffix"]}],"formatted_address":"320 Oronoco St, Alexandria, VA 22314, USA","geometry":{"location":{"lat":38.8090561,"lng":-77.0423902},"location_type":"ROOFTOP","viewport":{"northeast":{"lat":38.8104050802915,"lng":-77.04104121970849},"southwest":{"lat":38.8077071197085,"lng":-77.0437391802915}}},"partial_match":true,"place_id":"ChIJz9PwK_ewt4kRTTPSE35KU4c","types":["street_address"]}],"status":"OK"},"920 N Columbus":{"results":[{"address_components":[{"long_name":"920","short_name":"920","types":["street_number"]},{"long_name":"North Columbus Street","short_name":"N Columbus St","types":["route"]},{"long_name":"Alexandria","short_name":"Alexandria","types":["locality","political"]},{"long_name":"Virginia","short_name":"VA","types":["administrative_area_level_1","political"]},{"long_name":"United States","short_name":"US","types":["country","political"]},{"long_name":"22314","short_name":"22314","types":["postal_code"]},{"long_name":"1612","short_name":"1612","types":["postal_code_suffix"]}],"formatted_address":"920 N Columbus St, Alexandria, VA 22314, USA","geometry":{"bounds":{"northeast":{"lat":38.814943,"lng":-77.0460385},"southwest":{"lat":38.8149407,"lng":-77.0460571}},"location":{"lat":38.814943,"lng":-77.0460571},"location_type":"RANGE_INTERPOLATED","viewport":{"northeast":{"lat":38.8162908302915,"lng":-77.04469881970849},"southwest":{"lat":38.8135928697085,"lng":-77.04739678029149}}},"partial_match":true,"place_id":"Eiw5MjAgTiBDb2x1bWJ1cyBTdCwgQWxleGFuZHJpYSwgVkEgMjIzMTQsIFVTQQ","types":["street_address"]}],"status":"OK"},"419 N Henry":{"results":[{"address_components":[{"long_name":"419","short_name":"419","types":["street_number"]},{"long_name":"North Henry Street","short_name":"N Henry St","types":["route"]},{"long_name":"Old Town West","short_name":"Old Town West","types":["neighborhood","political"]},{"long_name":"Alexandria","short_name":"Alexandria","types":["locality","political"]},{"long_name":"Virginia","short_name":"VA","types":["administrative_area_level_1","political"]},{"long_name":"United States","short_name":"US","types":["country","political"]},{"long_name":"22314","short_name":"22314","types":["postal_code"]},{"long_name":"2230","short_name":"2230","types":["postal_code_suffix"]}],"formatted_address":"419 N Henry St, Alexandria, VA 22314, USA","geometry":{"bounds":{"northeast":{"lat":38.8096578,"lng":-77.0505022},"southwest":{"lat":38.8096554,"lng":-77.05052069999999}},"location":{"lat":38.8096554,"lng":-77.0505022},"location_type":"RANGE_INTERPOLATED","viewport":{"northeast":{"lat":38.8110055802915,"lng":-77.04916246970849},"southwest":{"lat":38.8083076197085,"lng":-77.0518604302915}}},"partial_match":true,"place_id":"Eik0MTkgTiBIZW5yeSBTdCwgQWxleGFuZHJpYSwgVkEgMjIzMTQsIFVTQQ","types":["street_address"]}],"status":"OK"},"407 Oronoco":{"results":[{"address_components":[{"long_name":"407","short_name":"407","types":["street_number"]},{"long_name":"Oronoco Street","short_name":"Oronoco St","types":["route"]},{"long_name":"Old Town","short_name":"Old Town","types":["neighborhood","political"]},{"long_name":"Alexandria","short_name":"Alexandria","types":["locality","political"]},{"long_name":"Virginia","short_name":"VA","types":["administrative_area_level_1","political"]},{"long_name":"United States","short_name":"US","types":["country","political"]},{"long_name":"22314","short_name":"22314","types":["postal_code"]},{"long_name":"2323","short_name":"2323","types":["postal_code_suffix"]}],"formatted_address":"407 Oronoco St, Alexandria, VA 22314, USA","geometry":{"bounds":{"northeast":{"lat":38.8094013,"lng":-77.04283559999999},"southwest":{"lat":38.8093107,"lng":-77.0429815}},"location":{"lat":38.809356,"lng":-77.04290859999999},"location_type":"ROOFTOP","viewport":{"northeast":{"lat":38.8107049802915,"lng":-77.0415595697085},"southwest":{"lat":38.8080070197085,"lng":-77.0442575302915}}},"partial_match":true,"place_id":"ChIJ793RMvewt4kROCLsRhIRt5k","types":["premise"]}],"status":"OK"},"Harlin Ct":{"results":[{"address_components":[{"long_name":"Harlan Street","short_name":"Harlan St","types":["route"]},{"long_name":"Rockville","short_name":"Rockville","types":["locality","political"]},{"long_name":"Montgomery County","short_name":"Montgomery County","types":["administrative_area_level_2","political"]},{"long_name":"Maryland","short_name":"MD","types":["administrative_area_level_1","political"]},{"long_name":"United States","short_name":"US","types":["country","political"]},{"long_name":"20853","short_name":"20853","types":["postal_code"]}],"formatted_address":"Harlan St, Rockville, MD 20853, USA","geometry":{"bounds":{"northeast":{"lat":39.0784975,"lng":-77.09217799999999},"southwest":{"lat":39.0767591,"lng":-77.09379020000002}},"location":{"lat":39.0780366,"lng":-77.09259639999999},"location_type":"GEOMETRIC_CENTER","viewport":{"northeast":{"lat":39.0789772802915,"lng":-77.0916351197085},"southwest":{"lat":39.0762793197085,"lng":-77.0943330802915}}},"partial_match":true,"place_id":"ChIJn9PQOg3Ot4kREx_rsYpPNFI","types":["route"]},{"address_components":[{"long_name":"Harlan Place Northwest","short_name":"Harlan Pl NW","types":["route"]},{"long_name":"Northwest Washington","short_name":"Northwest Washington","types":["neighborhood","political"]},{"long_name":"Washington","short_name":"Washington","types":["locality","political"]},{"long_name":"District of Columbia","short_name":"DC","types":["administrative_area_level_1","political"]},{"long_name":"United States","short_name":"US","types":["country","political"]},{"long_name":"20012","short_name":"20012","types":["postal_code"]}],"formatted_address":"Harlan Pl NW, Washington, DC 20012, USA","geometry":{"bounds":{"northeast":{"lat":38.97161639999999,"lng":-77.010059},"southwest":{"lat":38.9699761,"lng":-77.010789}},"location":{"lat":38.970738,"lng":-77.0105023},"location_type":"GEOMETRIC_CENTER","viewport":{"northeast":{"lat":38.97214523029149,"lng":-77.0090750197085},"southwest":{"lat":38.9694472697085,"lng":-77.01177298029151}}},"partial_match":true,"place_id":"ChIJfe10CILIt4kR0_XbhH3kgko","types":["route"]}],"status":"OK"},"N Royal":{"results":[{"address_components":[{"long_name":"North Royal Street","short_name":"N Royal St","types":["route"]},{"long_name":"Alexandria","short_name":"Alexandria","types":["locality","political"]},{"long_name":"Virginia","short_name":"VA","types":["administrative_area_level_1","political"]},{"long_name":"United States","short_name":"US","types":["country","political"]},{"long_name":"22314","short_name":"22314","types":["postal_code"]}],"formatted_address":"N Royal St, Alexandria, VA 22314, USA","geometry":{"bounds":{"northeast":{"lat":38.821173,"lng":-77.0401923},"southwest":{"lat":38.8046424,"lng":-77.04380689999999}},"location":{"lat":38.812596,"lng":-77.04194629999999},"location_type":"GEOMETRIC_CENTER","viewport":{"northeast":{"lat":38.821173,"lng":-77.0401923},"southwest":{"lat":38.8046424,"lng":-77.04380689999999}}},"partial_match":true,"place_id":"ChIJ41aj_fCwt4kR8JgJnDgO940","types":["route"]}],"status":"OK"},"316 N Alfred":{"results":[{"address_components":[{"long_name":"316","short_name":"316","types":["street_number"]},{"long_name":"North Alfred Street","short_name":"N Alfred St","types":["route"]},{"long_name":"Old Town West","short_name":"Old Town West","types":["neighborhood","political"]},{"long_name":"Alexandria","short_name":"Alexandria","types":["locality","political"]},{"long_name":"Virginia","short_name":"VA","types":["administrative_area_level_1","political"]},{"long_name":"United States","short_name":"US","types":["country","political"]},{"long_name":"22314","short_name":"22314","types":["postal_code"]},{"long_name":"2423","short_name":"2423","types":["postal_code_suffix"]}],"formatted_address":"316 N Alfred St, Alexandria, VA 22314, USA","geometry":{"bounds":{"northeast":{"lat":38.8081091,"lng":-77.0487124},"southwest":{"lat":38.8080468,"lng":-77.0488721}},"location":{"lat":38.80807799999999,"lng":-77.0487923},"location_type":"ROOFTOP","viewport":{"northeast":{"lat":38.8094269302915,"lng":-77.04744326970848},"southwest":{"lat":38.8067289697085,"lng":-77.0501412302915}}},"partial_match":true,"place_id":"ChIJMY7TG_mwt4kRkGqALOc11Bs","types":["premise"]}],"status":"OK"},"608 S St Asaph":{"results":[{"address_components":[{"long_name":"608","short_name":"608","types":["street_number"]},{"long_name":"South Saint Asaph Street","short_name":"S St Asaph St","types":["route"]},{"long_name":"Old Town","short_name":"Old Town","types":["neighborhood","political"]},{"long_name":"Alexandria","short_name":"Alexandria","types":["locality","political"]},{"long_name":"Virginia","short_name":"VA","types":["administrative_area_level_1","political"]},{"long_name":"United States","short_name":"US","types":["country","political"]},{"long_name":"22314","short_name":"22314","types":["postal_code"]},{"long_name":"4119","short_name":"4119","types":["postal_code_suffix"]}],"formatted_address":"608 S St Asaph St, Alexandria, VA 22314, USA","geometry":{"location":{"lat":38.79884800000001,"lng":-77.04680599999999},"location_type":"ROOFTOP","viewport":{"northeast":{"lat":38.80019698029151,"lng":-77.0454570197085},"southwest":{"lat":38.79749901970851,"lng":-77.0481549802915}}},"partial_match":true,"place_id":"ChIJ75XtxVCwt4kRiilSmlkfpZ4","types":["street_address"]}],"status":"OK"},"306 N Alfred":{"results":[{"address_components":[{"long_name":"306","short_name":"306","types":["street_number"]},{"long_name":"North Alfred Street","short_name":"N Alfred St","types":["route"]},{"long_name":"Old Town West","short_name":"Old Town West","types":["neighborhood","political"]},{"long_name":"Alexandria","short_name":"Alexandria","types":["locality","political"]},{"long_name":"Virginia","short_name":"VA","types":["administrative_area_level_1","political"]},{"long_name":"United States","short_name":"US","types":["country","political"]},{"long_name":"22314","short_name":"22314","types":["postal_code"]},{"long_name":"2423","short_name":"2423","types":["postal_code_suffix"]}],"formatted_address":"306 N Alfred St, Alexandria, VA 22314, USA","geometry":{"location":{"lat":38.8078787,"lng":-77.0488846},"location_type":"ROOFTOP","viewport":{"northeast":{"lat":38.80922768029149,"lng":-77.04753561970848},"southwest":{"lat":38.80652971970849,"lng":-77.0502335802915}}},"partial_match":true,"place_id":"ChIJ4YJfGfmwt4kR6jAW7Y-r1i8","types":["street_address"]}],"status":"OK"},"812 Duke":{"results":[{"address_components":[{"long_name":"812","short_name":"812","types":["street_number"]},{"long_name":"Duke Street","short_name":"Duke St","types":["route"]},{"long_name":"Southwest Quadrant","short_name":"Southwest Quadrant","types":["neighborhood","political"]},{"long_name":"Alexandria","short_name":"Alexandria","types":["locality","political"]},{"long_name":"Virginia","short_name":"VA","types":["administrative_area_level_1","political"]},{"long_name":"United States","short_name":"US","types":["country","political"]},{"long_name":"22314","short_name":"22314","types":["postal_code"]},{"long_name":"3624","short_name":"3624","types":["postal_code_suffix"]}],"formatted_address":"812 Duke St, Alexandria, VA 22314, USA","geometry":{"location":{"lat":38.802754,"lng":-77.0491569},"location_type":"ROOFTOP","viewport":{"northeast":{"lat":38.8041029802915,"lng":-77.0478079197085},"southwest":{"lat":38.8014050197085,"lng":-77.05050588029151}}},"partial_match":true,"place_id":"ChIJpx3CXVawt4kREd1kfTyN6io","types":["street_address"]}],"status":"OK"},"709 Wolfe":{"results":[{"address_components":[{"long_name":"709","short_name":"709","types":["street_number"]},{"long_name":"Wolfe Street","short_name":"Wolfe St","types":["route"]},{"long_name":"Southwest Quadrant","short_name":"Southwest Quadrant","types":["neighborhood","political"]},{"long_name":"Alexandria","short_name":"Alexandria","types":["locality","political"]},{"long_name":"Virginia","short_name":"VA","types":["administrative_area_level_1","political"]},{"long_name":"United States","short_name":"US","types":["country","political"]},{"long_name":"22314","short_name":"22314","types":["postal_code"]},{"long_name":"3613","short_name":"3613","types":["postal_code_suffix"]}],"formatted_address":"709 Wolfe St, Alexandria, VA 22314, USA","geometry":{"bounds":{"northeast":{"lat":38.8017353,"lng":-77.0483656},"southwest":{"lat":38.8017209,"lng":-77.0483687}},"location":{"lat":38.8017353,"lng":-77.0483656},"location_type":"RANGE_INTERPOLATED","viewport":{"northeast":{"lat":38.8030770802915,"lng":-77.0470181697085},"southwest":{"lat":38.8003791197085,"lng":-77.0497161302915}}},"partial_match":true,"place_id":"Eic3MDkgV29sZmUgU3QsIEFsZXhhbmRyaWEsIFZBIDIyMzE0LCBVU0E","types":["street_address"]}],"status":"OK"},"330 N Patrick":{"results":[{"address_components":[{"long_name":"330","short_name":"330","types":["street_number"]},{"long_name":"North Patrick Street","short_name":"N Patrick St","types":["route"]},{"long_name":"Old Town West","short_name":"Old Town West","types":["neighborhood","political"]},{"long_name":"Alexandria","short_name":"Alexandria","types":["locality","political"]},{"long_name":"Virginia","short_name":"VA","types":["administrative_area_level_1","political"]},{"long_name":"United States","short_name":"US","types":["country","political"]},{"long_name":"22314","short_name":"22314","types":["postal_code"]},{"long_name":"2443","short_name":"2443","types":["postal_code_suffix"]}],"formatted_address":"330 N Patrick St, Alexandria, VA 22314, USA","geometry":{"location":{"lat":38.808663,"lng":-77.049926},"location_type":"ROOFTOP","viewport":{"northeast":{"lat":38.8100119802915,"lng":-77.0485770197085},"southwest":{"lat":38.8073140197085,"lng":-77.05127498029151}}},"partial_match":true,"place_id":"ChIJTcrcOfmwt4kRpfst3SmXnNo","types":["street_address"]}],"status":"OK"},"1307 Queen":{"results":[{"address_components":[{"long_name":"1307","short_name":"1307","types":["street_number"]},{"long_name":"Queen Street","short_name":"Queen St","types":["route"]},{"long_name":"Old Town West","short_name":"Old Town West","types":["neighborhood","political"]},{"long_name":"Alexandria","short_name":"Alexandria","types":["locality","political"]},{"long_name":"Virginia","short_name":"VA","types":["administrative_area_level_1","political"]},{"long_name":"United States","short_name":"US","types":["country","political"]},{"long_name":"22314","short_name":"22314","types":["postal_code"]},{"long_name":"2405","short_name":"2405","types":["postal_code_suffix"]}],"formatted_address":"1307 Queen St, Alexandria, VA 22314, USA","geometry":{"bounds":{"northeast":{"lat":38.8084368,"lng":-77.053342},"southwest":{"lat":38.8083151,"lng":-77.0533986}},"location":{"lat":38.8083759,"lng":-77.0533703},"location_type":"ROOFTOP","viewport":{"northeast":{"lat":38.8097249302915,"lng":-77.0520213197085},"southwest":{"lat":38.8070269697085,"lng":-77.05471928029151}}},"partial_match":true,"place_id":"ChIJ6Wsj-f6wt4kRlc4NBpTM2ao","types":["premise"]}],"status":"OK"},"400 Gibbon":{"results":[{"address_components":[{"long_name":"400","short_name":"400","types":["street_number"]},{"long_name":"Gibbon Street","short_name":"Gibbon St","types":["route"]},{"long_name":"Old Town","short_name":"Old Town","types":["neighborhood","political"]},{"long_name":"Alexandria","short_name":"Alexandria","types":["locality","political"]},{"long_name":"Virginia","short_name":"VA","types":["administrative_area_level_1","political"]},{"long_name":"United States","short_name":"US","types":["country","political"]},{"long_name":"22314","short_name":"22314","types":["postal_code"]},{"long_name":"4132","short_name":"4132","types":["postal_code_suffix"]}],"formatted_address":"400 Gibbon St, Alexandria, VA 22314, USA","geometry":{"location":{"lat":38.798773,"lng":-77.045028},"location_type":"ROOFTOP","viewport":{"northeast":{"lat":38.8001219802915,"lng":-77.04367901970849},"southwest":{"lat":38.7974240197085,"lng":-77.04637698029151}}},"partial_match":true,"place_id":"ChIJzaFqqFCwt4kRk4T4bpZ8ehQ","types":["street_address"]}],"status":"OK"},"422 S Washington":{"results":[{"address_components":[{"long_name":"422","short_name":"422","types":["street_number"]},{"long_name":"South Washington Street","short_name":"S Washington St","types":["route"]},{"long_name":"Southwest Quadrant","short_name":"Southwest Quadrant","types":["neighborhood","political"]},{"long_name":"Alexandria","short_name":"Alexandria","types":["locality","political"]},{"long_name":"Virginia","short_name":"VA","types":["administrative_area_level_1","political"]},{"long_name":"United States","short_name":"US","types":["country","political"]},{"long_name":"22314","short_name":"22314","types":["postal_code"]},{"long_name":"3630","short_name":"3630","types":["postal_code_suffix"]}],"formatted_address":"422 S Washington St, Alexandria, VA 22314, USA","geometry":{"bounds":{"northeast":{"lat":38.8009579,"lng":-77.0474602},"southwest":{"lat":38.8008793,"lng":-77.0476568}},"location":{"lat":38.8009186,"lng":-77.0475585},"location_type":"ROOFTOP","viewport":{"northeast":{"lat":38.8022675802915,"lng":-77.0462095197085},"southwest":{"lat":38.7995696197085,"lng":-77.04890748029152}}},"partial_match":true,"place_id":"ChIJ35hjH1ewt4kRDVNGAn0-zmk","types":["premise"]}],"status":"OK"},"307 Gibbon":{"results":[{"address_components":[{"long_name":"307","short_name":"307","types":["street_number"]},{"long_name":"Gibbon Street","short_name":"Gibbon St","types":["route"]},{"long_name":"Old Town","short_name":"Old Town","types":["neighborhood","political"]},{"long_name":"Alexandria","short_name":"Alexandria","types":["locality","political"]},{"long_name":"Virginia","short_name":"VA","types":["administrative_area_level_1","political"]},{"long_name":"United States","short_name":"US","types":["country","political"]},{"long_name":"22314","short_name":"22314","types":["postal_code"]},{"long_name":"4129","short_name":"4129","types":["postal_code_suffix"]}],"formatted_address":"307 Gibbon St, Alexandria, VA 22314, USA","geometry":{"location":{"lat":38.799078,"lng":-77.044156},"location_type":"ROOFTOP","viewport":{"northeast":{"lat":38.8004269802915,"lng":-77.04280701970849},"southwest":{"lat":38.79772901970851,"lng":-77.04550498029151}}},"partial_match":true,"place_id":"ChIJN34nHVqwt4kRVOhfHeeOcqM","types":["street_address"]}],"status":"OK"},"423 N Patrick":{"results":[{"address_components":[{"long_name":"423","short_name":"423","types":["street_number"]},{"long_name":"North Patrick Street","short_name":"N Patrick St","types":["route"]},{"long_name":"Old Town West","short_name":"Old Town West","types":["neighborhood","political"]},{"long_name":"Alexandria","short_name":"Alexandria","types":["locality","political"]},{"long_name":"Virginia","short_name":"VA","types":["administrative_area_level_1","political"]},{"long_name":"United States","short_name":"US","types":["country","political"]},{"long_name":"22314","short_name":"22314","types":["postal_code"]},{"long_name":"2240","short_name":"2240","types":["postal_code_suffix"]}],"formatted_address":"423 N Patrick St, Alexandria, VA 22314, USA","geometry":{"location":{"lat":38.809613,"lng":-77.049076},"location_type":"ROOFTOP","viewport":{"northeast":{"lat":38.8109619802915,"lng":-77.04772701970849},"southwest":{"lat":38.8082640197085,"lng":-77.05042498029151}}},"partial_match":true,"place_id":"ChIJA8ABZ_mwt4kRGAcZzHLIoRk","types":["street_address"]}],"status":"OK"},"519 S Columbus":{"results":[{"address_components":[{"long_name":"519","short_name":"519","types":["street_number"]},{"long_name":"South Columbus Street","short_name":"S Columbus St","types":["route"]},{"long_name":"Southwest Quadrant","short_name":"Southwest Quadrant","types":["neighborhood","political"]},{"long_name":"Alexandria","short_name":"Alexandria","types":["locality","political"]},{"long_name":"Virginia","short_name":"VA","types":["administrative_area_level_1","political"]},{"long_name":"United States","short_name":"US","types":["country","political"]},{"long_name":"22314","short_name":"22314","types":["postal_code"]}],"formatted_address":"519 S Columbus St, Alexandria, VA 22314, USA","geometry":{"bounds":{"northeast":{"lat":38.80023660000001,"lng":-77.0491741},"southwest":{"lat":38.8002341,"lng":-77.0491926}},"location":{"lat":38.80023660000001,"lng":-77.0491926},"location_type":"RANGE_INTERPOLATED","viewport":{"northeast":{"lat":38.8015843302915,"lng":-77.04783436970851},"southwest":{"lat":38.79888636970851,"lng":-77.05053233029152}}},"partial_match":true,"place_id":"Eiw1MTkgUyBDb2x1bWJ1cyBTdCwgQWxleGFuZHJpYSwgVkEgMjIzMTQsIFVTQQ","types":["street_address"]}],"status":"OK"},"909 Pendleton":{"results":[{"address_components":[{"long_name":"909","short_name":"909","types":["street_number"]},{"long_name":"Pendleton Street","short_name":"Pendleton St","types":["route"]},{"long_name":"Old Town West","short_name":"Old Town West","types":["neighborhood","political"]},{"long_name":"Alexandria","short_name":"Alexandria","types":["locality","political"]},{"long_name":"Virginia","short_name":"VA","types":["administrative_area_level_1","political"]},{"long_name":"United States","short_name":"US","types":["country","political"]},{"long_name":"22314","short_name":"22314","types":["postal_code"]},{"long_name":"1834","short_name":"1834","types":["postal_code_suffix"]}],"formatted_address":"909 Pendleton St, Alexandria, VA 22314, USA","geometry":{"bounds":{"northeast":{"lat":38.8113128,"lng":-77.0484814},"southwest":{"lat":38.8112225,"lng":-77.0485697}},"location":{"lat":38.81126769999999,"lng":-77.0485255},"location_type":"ROOFTOP","viewport":{"northeast":{"lat":38.8126166302915,"lng":-77.0471765697085},"southwest":{"lat":38.8099186697085,"lng":-77.0498745302915}}},"partial_match":true,"place_id":"ChIJpbIPyPuwt4kR7HDfQdZzwZU","types":["premise"]}],"status":"OK"},"313 N Patrick":{"results":[{"address_components":[{"long_name":"313","short_name":"313","types":["street_number"]},{"long_name":"North Patrick Street","short_name":"N Patrick St","types":["route"]},{"long_name":"Old Town West","short_name":"Old Town West","types":["neighborhood","political"]},{"long_name":"Alexandria","short_name":"Alexandria","types":["locality","political"]},{"long_name":"Virginia","short_name":"VA","types":["administrative_area_level_1","political"]},{"long_name":"United States","short_name":"US","types":["country","political"]},{"long_name":"22314","short_name":"22314","types":["postal_code"]},{"long_name":"2442","short_name":"2442","types":["postal_code_suffix"]}],"formatted_address":"313 N Patrick St, Alexandria, VA 22314, USA","geometry":{"location":{"lat":38.808114,"lng":-77.049392},"location_type":"ROOFTOP","viewport":{"northeast":{"lat":38.80946298029149,"lng":-77.0480430197085},"southwest":{"lat":38.80676501970849,"lng":-77.05074098029151}}},"partial_match":true,"place_id":"ChIJwxndIvmwt4kRdRGA3RhzRwk","types":["street_address"]}],"status":"OK"},"RFD #2 Alexandria VA":{"results":[{"address_components":[{"long_name":"R F D Road","short_name":"R F D Rd","types":["route"]},{"long_name":"Beaumont","short_name":"Beaumont","types":["locality","political"]},{"long_name":"Jefferson County","short_name":"Jefferson County","types":["administrative_area_level_2","political"]},{"long_name":"Texas","short_name":"TX","types":["administrative_area_level_1","political"]},{"long_name":"United States","short_name":"US","types":["country","political"]},{"long_name":"77708","short_name":"77708","types":["postal_code"]}],"formatted_address":"R F D Rd, Beaumont, TX 77708, USA","geometry":{"bounds":{"northeast":{"lat":30.1405382,"lng":-94.17581609999999},"southwest":{"lat":30.1332211,"lng":-94.1850929}},"location":{"lat":30.1364401,"lng":-94.1798991},"location_type":"GEOMETRIC_CENTER","viewport":{"northeast":{"lat":30.1405382,"lng":-94.17581609999999},"southwest":{"lat":30.1332211,"lng":-94.1850929}}},"partial_match":true,"place_id":"ChIJ6b6LQwgzOYYR1auq_4q6Ak4","types":["route"]},{"address_components":[{"long_name":"Rfd Road","short_name":"Rfd Rd","types":["route"]},{"long_name":"Stafford Springs","short_name":"Stafford Springs","types":["neighborhood","political"]},{"long_name":"Stafford","short_name":"Stafford","types":["locality","political"]},{"long_name":"Tolland County","short_name":"Tolland County","types":["administrative_area_level_2","political"]},{"long_name":"Connecticut","short_name":"CT","types":["administrative_area_level_1","political"]},{"long_name":"United States","short_name":"US","types":["country","political"]},{"long_name":"06076","short_name":"06076","types":["postal_code"]}],"formatted_address":"Rfd Rd, Stafford Springs, CT 06076, USA","geometry":{"bounds":{"northeast":{"lat":41.9862073,"lng":-72.2539473},"southwest":{"lat":41.9778671,"lng":-72.2731143}},"location":{"lat":41.9814666,"lng":-72.2614887},"location_type":"GEOMETRIC_CENTER","viewport":{"northeast":{"lat":41.9862073,"lng":-72.2539473},"southwest":{"lat":41.9778671,"lng":-72.2731143}}},"partial_match":true,"place_id":"ChIJ77Y1LrST5okR0AGOmYJY2ac","types":["route"]}],"status":"OK"},"309 N Fayette":{"results":[{"address_components":[{"long_name":"309","short_name":"309","types":["street_number"]},{"long_name":"North Fayette Street","short_name":"N Fayette St","types":["route"]},{"long_name":"Old Town West","short_name":"Old Town West","types":["neighborhood","political"]},{"long_name":"Alexandria","short_name":"Alexandria","types":["locality","political"]},{"long_name":"Virginia","short_name":"VA","types":["administrative_area_level_1","political"]},{"long_name":"United States","short_name":"US","types":["country","political"]},{"long_name":"22314","short_name":"22314","types":["postal_code"]},{"long_name":"2434","short_name":"2434","types":["postal_code_suffix"]}],"formatted_address":"309 N Fayette St, Alexandria, VA 22314, USA","geometry":{"location":{"lat":38.8083456,"lng":-77.05165439999999},"location_type":"ROOFTOP","viewport":{"northeast":{"lat":38.8096945802915,"lng":-77.0503054197085},"southwest":{"lat":38.8069966197085,"lng":-77.0530033802915}}},"partial_match":true,"place_id":"ChIJHXUW2_6wt4kRRkgvb1o9D2I","types":["street_address"]}],"status":"OK"},"511 S Columbus":{"results":[{"address_components":[{"long_name":"511","short_name":"511","types":["street_number"]},{"long_name":"South Columbus Street","short_name":"S Columbus St","types":["route"]},{"long_name":"Southwest Quadrant","short_name":"Southwest Quadrant","types":["neighborhood","political"]},{"long_name":"Alexandria","short_name":"Alexandria","types":["locality","political"]},{"long_name":"Virginia","short_name":"VA","types":["administrative_area_level_1","political"]},{"long_name":"United States","short_name":"US","types":["country","political"]},{"long_name":"22314","short_name":"22314","types":["postal_code"]}],"formatted_address":"511 S Columbus St, Alexandria, VA 22314, USA","geometry":{"bounds":{"northeast":{"lat":38.800418,"lng":-77.0491341},"southwest":{"lat":38.8004155,"lng":-77.0491526}},"location":{"lat":38.800418,"lng":-77.0491526},"location_type":"RANGE_INTERPOLATED","viewport":{"northeast":{"lat":38.8017657302915,"lng":-77.0477943697085},"southwest":{"lat":38.79906776970851,"lng":-77.0504923302915}}},"partial_match":true,"place_id":"Eiw1MTEgUyBDb2x1bWJ1cyBTdCwgQWxleGFuZHJpYSwgVkEgMjIzMTQsIFVTQQ","types":["street_address"]}],"status":"OK"},"920 Pendleton":{"results":[{"address_components":[{"long_name":"920","short_name":"920","types":["street_number"]},{"long_name":"Pendleton Street","short_name":"Pendleton St","types":["route"]},{"long_name":"Old Town West","short_name":"Old Town West","types":["neighborhood","political"]},{"long_name":"Alexandria","short_name":"Alexandria","types":["locality","political"]},{"long_name":"Virginia","short_name":"VA","types":["administrative_area_level_1","political"]},{"long_name":"United States","short_name":"US","types":["country","political"]},{"long_name":"22314","short_name":"22314","types":["postal_code"]},{"long_name":"1835","short_name":"1835","types":["postal_code_suffix"]}],"formatted_address":"920 Pendleton St, Alexandria, VA 22314, USA","geometry":{"location":{"lat":38.81093500000001,"lng":-77.048881},"location_type":"ROOFTOP","viewport":{"northeast":{"lat":38.81228398029151,"lng":-77.04753201970848},"southwest":{"lat":38.80958601970851,"lng":-77.0502299802915}}},"partial_match":true,"place_id":"ChIJTRt1xPuwt4kRtRY5VC6pp5Y","types":["street_address"]}],"status":"OK"},"123 N Henry":{"results":[{"address_components":[{"long_name":"123","short_name":"123","types":["street_number"]},{"long_name":"North Henry Street","short_name":"N Henry St","types":["route"]},{"long_name":"Old Town","short_name":"Old Town","types":["neighborhood","political"]},{"long_name":"Alexandria","short_name":"Alexandria","types":["locality","political"]},{"long_name":"Virginia","short_name":"VA","types":["administrative_area_level_1","political"]},{"long_name":"United States","short_name":"US","types":["country","political"]},{"long_name":"22314","short_name":"22314","types":["postal_code"]},{"long_name":"2903","short_name":"2903","types":["postal_code_suffix"]}],"formatted_address":"123 N Henry St, Alexandria, VA 22314, USA","geometry":{"bounds":{"northeast":{"lat":38.8064038,"lng":-77.0508768},"southwest":{"lat":38.8063246,"lng":-77.0510738}},"location":{"lat":38.8063642,"lng":-77.05097529999999},"location_type":"ROOFTOP","viewport":{"northeast":{"lat":38.8077131802915,"lng":-77.0496263197085},"southwest":{"lat":38.8050152197085,"lng":-77.0523242802915}}},"partial_match":true,"place_id":"ChIJZ7QVSv-wt4kRNqpdRCCXlQg","types":["premise"]}],"status":"OK"},"1113 Queen":{"results":[{"address_components":[{"long_name":"1113","short_name":"1113","types":["street_number"]},{"long_name":"Queen Street","short_name":"Queen St","types":["route"]},{"long_name":"Old Town West","short_name":"Old Town West","types":["neighborhood","political"]},{"long_name":"Alexandria","short_name":"Alexandria","types":["locality","political"]},{"long_name":"Virginia","short_name":"VA","types":["administrative_area_level_1","political"]},{"long_name":"United States","short_name":"US","types":["country","political"]},{"long_name":"22314","short_name":"22314","types":["postal_code"]},{"long_name":"2450","short_name":"2450","types":["postal_code_suffix"]}],"formatted_address":"1113 Queen St, Alexandria, VA 22314, USA","geometry":{"location":{"lat":38.8081913,"lng":-77.0513738},"location_type":"ROOFTOP","viewport":{"northeast":{"lat":38.8095402802915,"lng":-77.0500248197085},"southwest":{"lat":38.8068423197085,"lng":-77.0527227802915}}},"partial_match":true,"place_id":"ChIJiVKa0P6wt4kRSI0LhaCvh40","types":["street_address"]}],"status":"OK"},"320 N Alfred":{"results":[{"address_components":[{"long_name":"320","short_name":"320","types":["street_number"]},{"long_name":"North Alfred Street","short_name":"N Alfred St","types":["route"]},{"long_name":"Old Town West","short_name":"Old Town West","types":["neighborhood","political"]},{"long_name":"Alexandria","short_name":"Alexandria","types":["locality","political"]},{"long_name":"Virginia","short_name":"VA","types":["administrative_area_level_1","political"]},{"long_name":"United States","short_name":"US","types":["country","political"]},{"long_name":"22314","short_name":"22314","types":["postal_code"]},{"long_name":"2423","short_name":"2423","types":["postal_code_suffix"]}],"formatted_address":"320 N Alfred St, Alexandria, VA 22314, USA","geometry":{"location":{"lat":38.808202,"lng":-77.0488589},"location_type":"ROOFTOP","viewport":{"northeast":{"lat":38.8095509802915,"lng":-77.04750991970849},"southwest":{"lat":38.8068530197085,"lng":-77.05020788029151}}},"partial_match":true,"place_id":"ChIJ0Um2EPmwt4kRY0-zrRBo8_Y","types":["street_address"]}],"status":"OK"},"718 N Washington":{"results":[{"address_components":[{"long_name":"718","short_name":"718","types":["street_number"]},{"long_name":"North Washington Street","short_name":"N Washington St","types":["route"]},{"long_name":"Old Town West","short_name":"Old Town West","types":["neighborhood","political"]},{"long_name":"Alexandria","short_name":"Alexandria","types":["locality","political"]},{"long_name":"Virginia","short_name":"VA","types":["administrative_area_level_1","political"]},{"long_name":"United States","short_name":"US","types":["country","political"]},{"long_name":"22314","short_name":"22314","types":["postal_code"]},{"long_name":"1925","short_name":"1925","types":["postal_code_suffix"]}],"formatted_address":"718 N Washington St, Alexandria, VA 22314, USA","geometry":{"location":{"lat":38.812569,"lng":-77.0457349},"location_type":"ROOFTOP","viewport":{"northeast":{"lat":38.81391798029149,"lng":-77.04438591970849},"southwest":{"lat":38.8112200197085,"lng":-77.04708388029151}}},"partial_match":true,"place_id":"ChIJYUy2iPqwt4kRc_1NDeW-6K4","types":["street_address"]}],"status":"OK"},"506 N Fairfax":{"results":[{"address_components":[{"long_name":"506","short_name":"506","types":["street_number"]},{"long_name":"North Fairfax Street","short_name":"N Fairfax St","types":["route"]},{"long_name":"Old Town","short_name":"Old Town","types":["neighborhood","political"]},{"long_name":"Alexandria","short_name":"Alexandria","types":["locality","political"]},{"long_name":"Virginia","short_name":"VA","types":["administrative_area_level_1","political"]},{"long_name":"United States","short_name":"US","types":["country","political"]},{"long_name":"22314","short_name":"22314","types":["postal_code"]},{"long_name":"2006","short_name":"2006","types":["postal_code_suffix"]}],"formatted_address":"506 N Fairfax St, Alexandria, VA 22314, USA","geometry":{"bounds":{"northeast":{"lat":38.8095029,"lng":-77.0416035},"southwest":{"lat":38.8093921,"lng":-77.0419211}},"location":{"lat":38.8094475,"lng":-77.0417623},"location_type":"ROOFTOP","viewport":{"northeast":{"lat":38.81079648029149,"lng":-77.0404133197085},"southwest":{"lat":38.80809851970849,"lng":-77.04311128029151}}},"partial_match":true,"place_id":"ChIJC06YK_Gwt4kR2Nomsjv4LI0","types":["premise"]}],"status":"OK"},"422 Pendleton":{"results":[{"address_components":[{"long_name":"422","short_name":"422","types":["street_number"]},{"long_name":"Pendleton Street","short_name":"Pendleton St","types":["route"]},{"long_name":"Old Town","short_name":"Old Town","types":["neighborhood","political"]},{"long_name":"Alexandria","short_name":"Alexandria","types":["locality","political"]},{"long_name":"Virginia","short_name":"VA","types":["administrative_area_level_1","political"]},{"long_name":"United States","short_name":"US","types":["country","political"]},{"long_name":"22314","short_name":"22314","types":["postal_code"]},{"long_name":"1902","short_name":"1902","types":["postal_code_suffix"]}],"formatted_address":"422 Pendleton St, Alexandria, VA 22314, USA","geometry":{"location":{"lat":38.810267,"lng":-77.043336},"location_type":"ROOFTOP","viewport":{"northeast":{"lat":38.81161598029149,"lng":-77.0419870197085},"southwest":{"lat":38.8089180197085,"lng":-77.0446849802915}}},"partial_match":true,"place_id":"ChIJCXgEx_Cwt4kRPLIJEPgScw0","types":["street_address"]}],"status":"OK"},"716 N Henry":{"results":[{"address_components":[{"long_name":"716","short_name":"716","types":["street_number"]},{"long_name":"North Henry Street","short_name":"N Henry St","types":["route"]},{"long_name":"Old Town West","short_name":"Old Town West","types":["neighborhood","political"]},{"long_name":"Alexandria","short_name":"Alexandria","types":["locality","political"]},{"long_name":"Virginia","short_name":"VA","types":["administrative_area_level_1","political"]},{"long_name":"United States","short_name":"US","types":["country","political"]},{"long_name":"22314","short_name":"22314","types":["postal_code"]},{"long_name":"1829","short_name":"1829","types":["postal_code_suffix"]}],"formatted_address":"716 N Henry St, Alexandria, VA 22314, USA","geometry":{"location":{"lat":38.81307899999999,"lng":-77.049998},"location_type":"ROOFTOP","viewport":{"northeast":{"lat":38.8144279802915,"lng":-77.0486490197085},"southwest":{"lat":38.8117300197085,"lng":-77.05134698029151}}},"partial_match":true,"place_id":"ChIJzwwCevuwt4kRJcQfPnanLGQ","types":["street_address"]}],"status":"OK"},"222 S West":{"results":[{"address_components":[{"long_name":"222","short_name":"222","types":["street_number"]},{"long_name":"South West Street","short_name":"S West St","types":["route"]},{"long_name":"Old Town","short_name":"Old Town","types":["neighborhood","political"]},{"long_name":"Alexandria","short_name":"Alexandria","types":["locality","political"]},{"long_name":"Virginia","short_name":"VA","types":["administrative_area_level_1","political"]},{"long_name":"United States","short_name":"US","types":["country","political"]},{"long_name":"22314","short_name":"22314","types":["postal_code"]},{"long_name":"2827","short_name":"2827","types":["postal_code_suffix"]}],"formatted_address":"222 S West St, Alexandria, VA 22314, USA","geometry":{"bounds":{"northeast":{"lat":38.8043251,"lng":-77.0546997},"southwest":{"lat":38.8042542,"lng":-77.05489539999999}},"location":{"lat":38.8042897,"lng":-77.0547976},"location_type":"ROOFTOP","viewport":{"northeast":{"lat":38.8056386302915,"lng":-77.0534485697085},"southwest":{"lat":38.8029406697085,"lng":-77.05614653029151}}},"partial_match":true,"place_id":"ChIJpzDTFFWwt4kR3zkhXihXGI4","types":["premise"]}],"status":"OK"},"226 S West":{"results":[{"address_components":[{"long_name":"226","short_name":"226","types":["street_number"]},{"long_name":"South West Street","short_name":"S West St","types":["route"]},{"long_name":"Old Town","short_name":"Old Town","types":["neighborhood","political"]},{"long_name":"Alexandria","short_name":"Alexandria","types":["locality","political"]},{"long_name":"Virginia","short_name":"VA","types":["administrative_area_level_1","political"]},{"long_name":"United States","short_name":"US","types":["country","political"]},{"long_name":"22314","short_name":"22314","types":["postal_code"]},{"long_name":"2827","short_name":"2827","types":["postal_code_suffix"]}],"formatted_address":"226 S West St, Alexandria, VA 22314, USA","geometry":{"location":{"lat":38.804189,"lng":-77.0546899},"location_type":"ROOFTOP","viewport":{"northeast":{"lat":38.8055379802915,"lng":-77.05334091970849},"southwest":{"lat":38.8028400197085,"lng":-77.05603888029151}}},"partial_match":true,"place_id":"ChIJi9KZFFWwt4kRdM2mBdsxtYo","types":["street_address"]}],"status":"OK"},"1017 Princess":{"results":[{"address_components":[{"long_name":"1017","short_name":"1017","types":["street_number"]},{"long_name":"Princess Street","short_name":"Princess St","types":["route"]},{"long_name":"Old Town West","short_name":"Old Town West","types":["neighborhood","political"]},{"long_name":"Alexandria","short_name":"Alexandria","types":["locality","political"]},{"long_name":"Virginia","short_name":"VA","types":["administrative_area_level_1","political"]},{"long_name":"United States","short_name":"US","types":["country","political"]},{"long_name":"22314","short_name":"22314","types":["postal_code"]},{"long_name":"2246","short_name":"2246","types":["postal_code_suffix"]}],"formatted_address":"1017 Princess St, Alexandria, VA 22314, USA","geometry":{"location":{"lat":38.8091593,"lng":-77.050287},"location_type":"ROOFTOP","viewport":{"northeast":{"lat":38.8105082802915,"lng":-77.04893801970849},"southwest":{"lat":38.8078103197085,"lng":-77.0516359802915}}},"partial_match":true,"place_id":"ChIJdd1nSfmwt4kRRwbB5xKDTLI","types":["street_address"]}],"status":"OK"},"105 Franklin":{"results":[{"address_components":[{"long_name":"105","short_name":"105","types":["street_number"]},{"long_name":"Franklin Street","short_name":"Franklin St","types":["route"]},{"long_name":"Old Town","short_name":"Old Town","types":["neighborhood","political"]},{"long_name":"Alexandria","short_name":"Alexandria","types":["locality","political"]},{"long_name":"Virginia","short_name":"VA","types":["administrative_area_level_1","political"]},{"long_name":"United States","short_name":"US","types":["country","political"]},{"long_name":"22314","short_name":"22314","types":["postal_code"]},{"long_name":"3840","short_name":"3840","types":["postal_code_suffix"]}],"formatted_address":"105 Franklin St, Alexandria, VA 22314, USA","geometry":{"location":{"lat":38.79761,"lng":-77.04193200000002},"location_type":"ROOFTOP","viewport":{"northeast":{"lat":38.7989589802915,"lng":-77.04058301970852},"southwest":{"lat":38.7962610197085,"lng":-77.04328098029153}}},"partial_match":true,"place_id":"ChIJY64TtVuwt4kRBfBgCaKTMzY","types":["street_address"]}],"status":"OK"},"228 N Payne":{"results":[{"address_components":[{"long_name":"228","short_name":"228","types":["street_number"]},{"long_name":"North Payne Street","short_name":"N Payne St","types":["route"]},{"long_name":"Old Town West","short_name":"Old Town West","types":["neighborhood","political"]},{"long_name":"Alexandria","short_name":"Alexandria","types":["locality","political"]},{"long_name":"Virginia","short_name":"VA","types":["administrative_area_level_1","political"]},{"long_name":"United States","short_name":"US","types":["country","political"]},{"long_name":"22314","short_name":"22314","types":["postal_code"]},{"long_name":"2445","short_name":"2445","types":["postal_code_suffix"]}],"formatted_address":"228 N Payne St, Alexandria, VA 22314, USA","geometry":{"location":{"lat":38.807751,"lng":-77.05342},"location_type":"ROOFTOP","viewport":{"northeast":{"lat":38.8090999802915,"lng":-77.05207101970849},"southwest":{"lat":38.8064020197085,"lng":-77.05476898029151}}},"partial_match":true,"place_id":"ChIJ2ZvdAP-wt4kRPNm6kf7p4sY","types":["street_address"]}],"status":"OK"},"317 Oronoco":{"results":[{"address_components":[{"long_name":"317","short_name":"317","types":["street_number"]},{"long_name":"Oronoco Street","short_name":"Oronoco St","types":["route"]},{"long_name":"Old Town","short_name":"Old Town","types":["neighborhood","political"]},{"long_name":"Alexandria","short_name":"Alexandria","types":["locality","political"]},{"long_name":"Virginia","short_name":"VA","types":["administrative_area_level_1","political"]},{"long_name":"United States","short_name":"US","types":["country","political"]},{"long_name":"22314","short_name":"22314","types":["postal_code"]},{"long_name":"2019","short_name":"2019","types":["postal_code_suffix"]}],"formatted_address":"317 Oronoco St, Alexandria, VA 22314, USA","geometry":{"location":{"lat":38.8092862,"lng":-77.0422368},"location_type":"ROOFTOP","viewport":{"northeast":{"lat":38.81063518029149,"lng":-77.04088781970849},"southwest":{"lat":38.80793721970849,"lng":-77.04358578029151}}},"partial_match":true,"place_id":"ChIJ1cIpK_ewt4kRx278SxmHgME","types":["street_address"]}],"status":"OK"},"420 S St Asaph":{"results":[{"address_components":[{"long_name":"420","short_name":"420","types":["street_number"]},{"long_name":"South Saint Asaph Street","short_name":"S St Asaph St","types":["route"]},{"long_name":"Old Town","short_name":"Old Town","types":["neighborhood","political"]},{"long_name":"Alexandria","short_name":"Alexandria","types":["locality","political"]},{"long_name":"Virginia","short_name":"VA","types":["administrative_area_level_1","political"]},{"long_name":"United States","short_name":"US","types":["country","political"]},{"long_name":"22314","short_name":"22314","types":["postal_code"]},{"long_name":"3748","short_name":"3748","types":["postal_code_suffix"]}],"formatted_address":"420 S St Asaph St, Alexandria, VA 22314, USA","geometry":{"location":{"lat":38.8007368,"lng":-77.04648660000001},"location_type":"ROOFTOP","viewport":{"northeast":{"lat":38.80208578029149,"lng":-77.04513761970851},"southwest":{"lat":38.7993878197085,"lng":-77.04783558029152}}},"partial_match":true,"place_id":"ChIJt_HEP1ewt4kRuAO5VB070V4","types":["street_address"]}],"status":"OK"},"509 N Alfred":{"results":[{"address_components":[{"long_name":"509","short_name":"509","types":["street_number"]},{"long_name":"North Alfred Street","short_name":"N Alfred St","types":["route"]},{"long_name":"Old Town West","short_name":"Old Town West","types":["neighborhood","political"]},{"long_name":"Alexandria","short_name":"Alexandria","types":["locality","political"]},{"long_name":"Virginia","short_name":"VA","types":["administrative_area_level_1","political"]},{"long_name":"United States","short_name":"US","types":["country","political"]},{"long_name":"22314","short_name":"22314","types":["postal_code"]},{"long_name":"2226","short_name":"2226","types":["postal_code_suffix"]}],"formatted_address":"509 N Alfred St, Alexandria, VA 22314, USA","geometry":{"bounds":{"northeast":{"lat":38.8105353,"lng":-77.04776679999999},"southwest":{"lat":38.810462,"lng":-77.0479668}},"location":{"lat":38.8104987,"lng":-77.0478668},"location_type":"ROOFTOP","viewport":{"northeast":{"lat":38.8118476302915,"lng":-77.04651781970848},"southwest":{"lat":38.8091496697085,"lng":-77.0492157802915}}},"partial_match":true,"place_id":"ChIJQerI0vuwt4kRq9CyGWcecaE","types":["premise"]}],"status":"OK"},"305 Tancil":{"results":[{"address_components":[{"long_name":"305","short_name":"305","types":["street_number"]},{"long_name":"Tancil Court","short_name":"Tancil Ct","types":["route"]},{"long_name":"Old Town","short_name":"Old Town","types":["neighborhood","political"]},{"long_name":"Alexandria","short_name":"Alexandria","types":["locality","political"]},{"long_name":"Virginia","short_name":"VA","types":["administrative_area_level_1","political"]},{"long_name":"United States","short_name":"US","types":["country","political"]},{"long_name":"22314","short_name":"22314","types":["postal_code"]},{"long_name":"2336","short_name":"2336","types":["postal_code_suffix"]}],"formatted_address":"305 Tancil Ct, Alexandria, VA 22314, USA","geometry":{"bounds":{"northeast":{"lat":38.8085001,"lng":-77.041759},"southwest":{"lat":38.8084857,"lng":-77.0417618}},"location":{"lat":38.8084857,"lng":-77.0417618},"location_type":"RANGE_INTERPOLATED","viewport":{"northeast":{"lat":38.8098418802915,"lng":-77.04041141970849},"southwest":{"lat":38.8071439197085,"lng":-77.0431093802915}}},"partial_match":true,"place_id":"EigzMDUgVGFuY2lsIEN0LCBBbGV4YW5kcmlhLCBWQSAyMjMxNCwgVVNB","types":["street_address"]}],"status":"OK"},"513 Gibbon":{"results":[{"address_components":[{"long_name":"513","short_name":"513","types":["street_number"]},{"long_name":"Gibbon Street","short_name":"Gibbon St","types":["route"]},{"long_name":"Old Town","short_name":"Old Town","types":["neighborhood","political"]},{"long_name":"Alexandria","short_name":"Alexandria","types":["locality","political"]},{"long_name":"Virginia","short_name":"VA","types":["administrative_area_level_1","political"]},{"long_name":"United States","short_name":"US","types":["country","political"]},{"long_name":"22314","short_name":"22314","types":["postal_code"]}],"formatted_address":"513 Gibbon St, Alexandria, VA 22314, USA","geometry":{"bounds":{"northeast":{"lat":38.7991194,"lng":-77.0460971},"southwest":{"lat":38.799105,"lng":-77.04610029999999}},"location":{"lat":38.7991194,"lng":-77.0460971},"location_type":"RANGE_INTERPOLATED","viewport":{"northeast":{"lat":38.8004611802915,"lng":-77.04474971970849},"southwest":{"lat":38.7977632197085,"lng":-77.0474476802915}}},"partial_match":true,"place_id":"Eig1MTMgR2liYm9uIFN0LCBBbGV4YW5kcmlhLCBWQSAyMjMxNCwgVVNB","types":["street_address"]}],"status":"OK"},"810 Queen":{"results":[{"address_components":[{"long_name":"810","short_name":"810","types":["street_number"]},{"long_name":"Queen Street","short_name":"Queen St","types":["route"]},{"long_name":"Old Town West","short_name":"Old Town West","types":["neighborhood","political"]},{"long_name":"Alexandria","short_name":"Alexandria","types":["locality","political"]},